$GPRMC,185531.00,A,3037.82641,N,09624.25630,W,0.010,,121023,,,A*6E
$GPVTG,,T,,M,0.010,N,0.019,K,A*2A
$GPGGA,185531.00,3037.82641,N,09624.25630,W,1,10,0.87,94.2,M,-24.7,M,,*5D
$GPGSA,A,3,28,32,10,31,21,02,25,23,26,12,,,1.51,0.87,1.23*00
$GPGSV,4,1,14,01,27,308,35,02,34,291,35,03,00,313,,10,52,111,30*7F
$GPGSV,4,2,14,12,07,047,25,21,39,278,34,23,16,126,29,25,26,081,26*7F
$GPGSV,4,3,14,26,11,175,27,28,83,202,31,31,52,212,39,32,54,025,30*70
$GPGSV,4,4,14,46,40,232,34,48,43,227,33*72
$GPGLL,3037.82641,N,09624.25630,W,185531.00,A,A*75
$GPRMC,185532.00,A,3037.82634,N,09624.25630,W,0.264,,121023,,,A*6E
$GPVTG,,T,,M,0.264,N,0.489,K,A*26
$GPGGA,185532.00,3037.82634,N,09624.25630,W,1,10,0.87,94.3,M,-24.7,M,,*5D
$GPGSA,A,3,28,32,10,31,21,02,25,23,26,12,,,1.51,0.87,1.23*00
$GPGSV,4,1,14,01,27,308,34,02,34,291,34,03,00,313,,10,52,111,30*7F
$GPGSV,4,2,14,12,07,047,25,21,39,278,34,23,16,126,29,25,26,081,25*7C
$GPGSV,4,3,14,26,11,175,27,28,83,202,31,31,52,212,38,32,54,025,30*71
$GPGSV,4,4,14,46,40,232,34,48,43,227,33*72
$GPGLL,3037.82634,N,09624.25630,W,185532.00,A,A*74
$GPRMC,185533.00,A,3037.82632,N,09624.25633,W,0.089,,121023,,,A*6B
$GPVTG,,T,,M,0.089,N,0.165,K,A*20
$GPGGA,185533.00,3037.82632,N,09624.25633,W,1,10,0.87,94.4,M,-24.7,M,,*5E
$GPGSA,A,3,28,32,10,31,21,02,25,23,26,12,,,1.51,0.87,1.23*00
$GPGSV,4,1,14,01,27,308,33,02,34,291,31,03,00,313,,10,52,111,29*75
$GPGSV,4,2,14,12,07,047,24,21,39,278,33,23,16,126,29,25,26,081,26*79
$GPGSV,4,3,14,26,11,175,26,28,83,202,31,31,52,212,38,32,54,025,30*70
$GPGSV,4,4,14,46,40,232,32,48,43,227,33*74
$GPGLL,3037.82632,N,09624.25633,W,185533.00,A,A*70
$GPRMC,185534.00,A,3037.82634,N,09624.25635,W,0.024,,121023,,,A*6B
$GPVTG,,T,,M,0.024,N,0.045,K,A*24
$GPGGA,185534.00,3037.82634,N,09624.25635,W,1,10,0.87,94.4,M,-24.7,M,,*59
$GPGSA,A,3,28,32,10,31,21,02,25,23,26,12,,,1.51,0.87,1.23*00
$GPGSV,4,1,14,01,27,308,33,02,34,291,32,03,00,313,,10,52,111,29*76
$GPGSV,4,2,14,12,07,047,24,21,39,278,33,23,16,126,29,25,26,081,27*78
$GPGSV,4,3,14,26,11,175,25,28,83,202,32,31,52,212,39,32,54,025,31*70
$GPGSV,4,4,14,46,40,232,32,48,43,227,33*74
$GPGLL,3037.82634,N,09624.25635,W,185534.00,A,A*77
$GPRMC,185535.00,A,3037.82633,N,09624.25635,W,0.051,,121023,,,A*6F
$GPVTG,,T,,M,0.051,N,0.094,K,A*2A
$GPGGA,185535.00,3037.82633,N,09624.25635,W,1,10,0.88,94.5,M,-24.7,M,,*51
$GPGSA,A,3,28,32,10,31,21,02,25,23,26,12,,,1.51,0.88,1.23*0F
$GPGSV,4,1,14,01,27,308,32,02,34,291,32,03,00,313,,10,52,111,29*77
$GPGSV,4,2,14,12,07,047,25,21,39,278,34,23,16,126,30,25,26,081,27*76
$GPGSV,4,3,14,26,11,175,25,28,83,202,32,31,52,212,39,32,54,025,32*73
$GPGSV,4,4,14,46,40,232,33,48,43,227,34*72
$GPGLL,3037.82633,N,09624.25635,W,185535.00,A,A*71
$GPRMC,185536.00,A,3037.82628,N,09624.25634,W,0.329,,121023,,,A*6B
$GPVTG,,T,,M,0.329,N,0.610,K,A*2C
$GPGGA,185536.00,3037.82628,N,09624.25634,W,1,10,0.88,94.7,M,-24.7,M,,*5B
$GPGSA,A,3,28,32,10,31,21,02,25,23,26,12,,,1.51,0.88,1.23*0F
$GPGSV,4,1,14,01,27,308,32,02,34,291,33,03,00,313,,10,52,111,17*7B
$GPGSV,4,2,14,12,07,047,23,21,39,278,33,23,16,126,31,25,26,081,29*78
$GPGSV,4,3,14,26,11,175,26,28,83,202,31,31,52,212,38,32,54,025,31*71
$GPGSV,4,4,14,46,40,232,34,48,43,227,34*75
$GPGLL,3037.82628,N,09624.25634,W,185536.00,A,A*79
$GPRMC,185537.00,A,3037.82606,N,09624.25650,W,1.234,188.66,121023,,,A*77
$GPVTG,188.66,T,,M,1.234,N,2.285,K,A*35
$GPGGA,185537.00,3037.82606,N,09624.25650,W,1,10,0.88,94.8,M,-24.7,M,,*5B
$GPGSA,A,3,28,32,10,31,21,02,25,23,26,12,,,1.51,0.88,1.23*0F
$GPGSV,4,1,14,01,27,308,35,02,34,291,33,03,00,313,,10,52,111,20*78
$GPGSV,4,2,14,12,07,047,21,21,39,278,33,23,16,126,30,25,26,081,28*7A
$GPGSV,4,3,14,26,11,175,25,28,83,202,30,31,52,212,38,32,54,025,31*73
$GPGSV,4,4,14,46,40,232,34,48,43,227,36*77
$GPGLL,3037.82606,N,09624.25650,W,185537.00,A,A*76
$GPRMC,185538.00,A,3037.82575,N,09624.25673,W,1.495,202.64,121023,,,A*70
$GPVTG,202.64,T,,M,1.495,N,2.769,K,A*3C
$GPGGA,185538.00,3037.82575,N,09624.25673,W,1,09,0.96,95.0,M,-24.7,M,,*5C
$GPGSA,A,3,28,32,10,31,02,25,23,26,12,,,,1.57,0.96,1.25*03
$GPGSV,4,1,14,01,27,308,34,02,34,291,36,03,00,313,,10,52,111,22*7E
$GPGSV,4,2,14,12,07,047,20,21,39,278,,23,16,126,31,25,26,081,28*7A
$GPGSV,4,3,14,26,11,175,25,28,83,202,30,31,52,212,39,32,54,025,34*77
$GPGSV,4,4,14,46,40,232,34,48,43,227,36*77
$GPGLL,3037.82575,N,09624.25673,W,185538.00,A,A*7F
$GPRMC,185539.00,A,3037.82539,N,09624.25703,W,1.681,210.88,121023,,,A*79
$GPVTG,210.88,T,,M,1.681,N,3.113,K,A*30
$GPGGA,185539.00,3037.82539,N,09624.25703,W,1,10,0.88,95.0,M,-24.7,M,,*54
$GPGSA,A,3,28,32,10,31,21,02,25,23,26,12,,,1.51,0.88,1.23*0F
$GPGSV,4,1,14,01,27,308,34,02,34,290,34,03,00,313,,10,52,111,31*7F
$GPGSV,4,2,14,12,07,047,20,21,39,278,34,23,16,126,30,25,26,081,27*73
$GPGSV,4,3,14,26,11,175,25,28,83,202,33,31,52,212,39,32,54,025,30*70
$GPGSV,4,4,14,46,40,232,34,48,43,227,34*75
$GPGLL,3037.82539,N,09624.25703,W,185539.00,A,A*70
$GPRMC,185540.00,A,3037.82497,N,09624.25740,W,2.048,217.96,121023,,,A*7D
$GPVTG,217.96,T,,M,2.048,N,3.792,K,A*37
$GPGGA,185540.00,3037.82497,N,09624.25740,W,1,10,0.88,94.9,M,-24.7,M,,*50
$GPGSA,A,3,28,32,10,31,21,02,25,23,26,12,,,1.51,0.88,1.23*0F
$GPGSV,4,1,14,01,27,308,34,02,34,290,34,03,00,313,,10,52,111,31*7F
$GPGSV,4,2,14,12,07,047,20,21,39,278,29,23,16,126,31,25,26,081,27*7E
$GPGSV,4,3,14,26,11,175,26,28,83,202,28,31,52,212,36,32,54,025,30*76
$GPGSV,4,4,14,46,40,232,33,48,43,227,34*72
$GPRMC,185553.00,A,3037.82047,N,09624.26165,W,1.479,218.87,121023,,,A*7E
$GPVTG,218.87,T,,M,1.479,N,2.739,K,A*3D
$GPGGA,185553.00,3037.82047,N,09624.26165,W,1,10,0.88,95.8,M,-24.7,M,,*59
$GPGSA,A,3,28,32,10,31,21,02,25,23,26,12,,,1.51,0.88,1.23*0F
$GPGSV,4,1,14,01,27,308,31,02,34,290,30,03,00,313,,10,52,112,29*74
$GPGSV,4,2,14,12,07,047,14,21,39,278,37,23,16,126,33,25,26,081,31*73
$GPGSV,4,3,14,26,11,175,18,28,83,202,28,31,52,212,38,32,54,025,31*74
$GPGSV,4,4,14,46,40,232,35,48,43,227,35*75
$GPGLL,3037.82047,N,09624.26165,W,185553.00,A,A*75
$GPRMC,185554.00,A,3037.82018,N,09624.26188,W,1.318,220.46,121023,,,A*76
$GPVTG,220.46,T,,M,1.318,N,2.441,K,A*37
$GPGGA,185554.00,3037.82018,N,09624.26188,W,1,10,0.88,95.9,M,-24.7,M,,*56
$GPGSA,A,3,28,32,10,31,21,02,25,23,26,12,,,1.51,0.88,1.23*0F
$GPGLL,3037.82497,N,09624.25740,W,185540.00,A,A*7C
$GPRMC,185541.00,A,3037.82453,N,09624.25777,W,2.111,219.79,121023,,,A*72
$GPVTG,219.79,T,,M,2.111,N,3.909,K,A*39
$GPGGA,185541.00,3037.82453,N,09624.25777,W,1,10,0.88,95.2,M,-24.7,M,,*57
$GPGSA,A,3,28,32,10,31,21,02,25,23,26,12,,,1.51,0.88,1.23*0F
$GPGSV,4,1,14,01,27,308,29,02,34,290,36,03,00,313,,10,52,111,36*76
$GPGSV,4,2,14,12,07,047,19,21,39,278,39,23,16,126,30,25,26,081,32*70
$GPGSV,4,3,14,26,11,175,24,28,83,202,33,31,52,212,36,32,54,025,35*7B
$GPGSV,4,4,14,46,40,232,35,48,43,227,36*76
$GPGLL,3037.82453,N,09624.25777,W,185541.00,A,A*71
$GPRMC,185542.00,A,3037.82411,N,09624.25809,W,1.892,216.86,121023,,,A*7F
$GPVTG,216.86,T,,M,1.892,N,3.505,K,A*37
$GPGGA,185542.00,3037.82411,N,09624.25809,W,1,10,0.88,95.4,M,-24.7,M,,*52
$GPGSA,A,3,28,32,10,31,21,02,25,23,26,12,,,1.51,0.88,1.23*0F
$GPGSV,4,1,14,01,27,308,28,02,34,290,36,03,00,313,,10,52,111,29*79
$GPGSV,4,2,14,12,07,047,19,21,39,278,38,23,16,126,34,25,26,081,32*75
$GPGSV,4,3,14,26,11,175,24,28,83,202,30,31,52,212,36,32,54,025,35*78
$GPGSV,4,4,14,46,40,232,35,48,43,227,35*75
$GPGLL,3037.82411,N,09624.25809,W,185542.00,A,A*72
$GPRMC,185543.00,A,3037.82366,N,09624.25842,W,1.968,214.01,121023,,,A*7F
$GPVTG,214.01,T,,M,1.968,N,3.644,K,A*38
$GPGGA,185543.00,3037.82366,N,09624.25842,W,1,10,0.88,95.5,M,-24.7,M,,*5A
$GPGSA,A,3,28,32,10,31,21,02,25,23,26,12,,,1.51,0.88,1.23*0F
$GPGSV,4,1,14,01,27,308,27,02,34,290,35,03,00,313,,10,52,111,29*75
$GPGSV,4,2,14,12,07,047,21,21,39,278,36,23,16,126,31,25,26,081,32*75
$GPGSV,4,3,14,26,11,175,22,28,83,202,31,31,52,212,36,32,54,025,32*78
$GPGSV,4,4,14,46,40,232,34,48,43,227,36*77
$GPGLL,3037.82366,N,09624.25842,W,185543.00,A,A*7B
$GPRMC,185544.00,A,3037.82326,N,09624.25884,W,1.995,217.63,121023,,,A*73
$GPVTG,217.63,T,,M,1.995,N,3.694,K,A*30
$GPGGA,185544.00,3037.82326,N,09624.25884,W,1,10,0.88,95.5,M,-24.7,M,,*53
$GPGSA,A,3,28,32,10,31,21,02,25,23,26,12,,,1.51,0.88,1.23*0F
$GPGSV,4,1,14,01,27,308,28,02,34,290,35,03,00,313,,10,52,111,33*71
$GPGSV,4,2,14,12,07,047,22,21,39,278,38,23,16,126,32,25,26,081,28*70
$GPGSV,4,3,14,26,11,175,21,28,83,202,32,31,52,212,38,32,54,025,32*76
$GPGSV,4,4,14,46,40,232,39,48,43,227,38*74
$GPGLL,3037.82326,N,09624.25884,W,185544.00,A,A*72
$GPRMC,185545.00,A,3037.82293,N,09624.25921,W,1.687,219.87,121023,,,A*7B
$GPVTG,219.87,T,,M,1.687,N,3.124,K,A*34
$GPGGA,185545.00,3037.82293,N,09624.25921,W,1,10,0.88,95.5,M,-24.7,M,,*53
$GPGSA,A,3,28,32,10,31,21,02,25,23,26,12,,,1.51,0.88,1.23*0F
$GPGSV,4,1,14,01,27,308,28,02,34,290,35,03,00,313,,10,52,111,30*72
$GPGSV,4,2,14,12,07,047,22,21,39,278,38,23,16,126,32,25,26,081,31*78
$GPGSV,4,3,14,26,11,175,20,28,83,202,32,31,52,212,36,32,54,025,31*7A
$GPGSV,4,4,14,46,40,232,39,48,43,227,36*7A
$GPGLL,3037.82293,N,09624.25921,W,185545.00,A,A*72
$GPRMC,185546.00,A,3037.82267,N,09624.25951,W,1.410,219.70,121023,,,A*70
$GPVTG,219.70,T,,M,1.410,N,2.611,K,A*30
$GPGGA,185546.00,3037.82267,N,09624.25951,W,1,10,0.88,95.4,M,-24.7,M,,*5D
$GPGSA,A,3,28,32,10,31,21,02,25,23,26,12,,,1.51,0.88,1.23*0F
$GPGSV,4,1,14,01,27,308,29,02,34,290,37,03,00,313,,10,52,111,29*79
$GPGSV,4,2,14,12,07,047,20,21,39,278,36,23,16,126,31,25,26,081,29*7E
$GPGSV,4,3,14,26,11,175,21,28,83,202,32,31,52,212,36,32,54,025,32*78
$GPGSV,4,4,14,46,40,232,38,48,43,227,35*78
$GPGLL,3037.82267,N,09624.25951,W,185546.00,A,A*7D
$GPRMC,185547.00,A,3037.82241,N,09624.25979,W,1.426,219.95,121023,,,A*71
$GPVTG,219.95,T,,M,1.426,N,2.642,K,A*38
$GPGGA,185547.00,3037.82241,N,09624.25979,W,1,10,0.88,95.4,M,-24.7,M,,*52
$GPGSA,A,3,28,32,10,31,21,02,25,23,26,12,,,1.51,0.88,1.23*0F
$GPGSV,4,1,14,01,27,308,33,02,34,290,31,03,00,313,,10,52,112,28*76
$GPGSV,4,2,14,12,07,047,20,21,39,278,34,23,16,126,31,25,26,081,29*7C
$GPGSV,4,3,14,26,11,175,21,28,83,202,32,31,52,212,37,32,54,025,32*79
$GPGSV,4,4,14,46,40,232,37,48,43,227,31*73
$GPGLL,3037.82241,N,09624.25979,W,185547.00,A,A*72
$GPRMC,185548.00,A,3037.82210,N,09624.26014,W,1.598,220.99,121023,,,A*79
$GPVTG,220.99,T,,M,1.598,N,2.960,K,A*35
$GPGGA,185548.00,3037.82210,N,09624.26014,W,1,10,0.88,95.4,M,-24.7,M,,*58
$GPGSA,A,3,28,32,10,31,21,02,25,23,26,12,,,1.51,0.88,1.23*0F
$GPGSV,4,1,14,01,27,308,28,02,34,290,31,03,00,313,,10,52,112,27*73
$GPGSV,4,2,14,12,07,047,19,21,39,278,35,23,16,126,32,25,26,081,28*75
$GPGSV,4,3,14,26,11,175,22,28,83,202,31,31,52,212,37,32,54,025,32*79
$GPGSV,4,4,14,46,40,232,34,48,43,227,37*76
$GPGLL,3037.82210,N,09624.26014,W,185548.00,A,A*78
$GPRMC,185549.00,A,3037.82179,N,09624.26046,W,1.459,222.89,121023,,,A*7C
$GPVTG,222.89,T,,M,1.459,N,2.701,K,A*33
$GPGGA,185549.00,3037.82179,N,09624.26046,W,1,10,0.88,95.5,M,-24.7,M,,*53
$GPGSA,A,3,28,32,10,31,21,02,25,23,26,12,,,1.51,0.88,1.23*0F
$GPGSV,4,1,14,01,27,308,28,02,34,290,29,03,00,313,,10,52,112,26*7B
$GPGSV,4,2,14,12,07,047,19,21,39,278,37,23,16,126,32,25,26,081,28*77
$GPGSV,4,3,14,26,11,175,22,28,83,202,31,31,52,212,36,32,54,025,32*78
$GPGSV,4,4,14,46,40,232,37,48,43,227,36*74
$GPGLL,3037.82179,N,09624.26046,W,185549.00,A,A*72
$GPRMC,185550.00,A,3037.82147,N,09624.26075,W,1.631,218.15,121023,,,A*79
$GPVTG,218.15,T,,M,1.631,N,3.021,K,A*37
$GPGGA,185550.00,3037.82147,N,09624.26075,W,1,10,0.88,95.4,M,-24.7,M,,*57
$GPGSA,A,3,28,32,10,31,21,02,25,23,26,12,,,1.51,0.88,1.23*0F
$GPGSV,4,1,14,01,27,308,28,02,34,290,31,03,00,313,,10,52,112,25*71
$GPGSV,4,2,14,12,07,047,18,21,39,278,33,23,16,126,32,25,26,081,30*7B
$GPGSV,4,3,14,26,11,175,20,28,83,202,29,31,52,212,37,32,54,025,31*71
$GPGSV,4,4,14,46,40,232,35,48,43,227,36*76
$GPGLL,3037.82147,N,09624.26075,W,185550.00,A,A*77
$GPRMC,185551.00,A,3037.82114,N,09624.26109,W,1.586,220.68,121023,,,A*7A
$GPVTG,220.68,T,,M,1.586,N,2.938,K,A*39
$GPGGA,185551.00,3037.82114,N,09624.26109,W,1,10,0.88,95.5,M,-24.7,M,,*5B
$GPGSA,A,3,28,32,10,31,21,02,25,23,26,12,,,1.51,0.88,1.23*0F
$GPGSV,4,1,14,01,27,308,29,02,34,290,30,03,00,313,,10,52,112,24*70
$GPGSV,4,2,14,12,07,047,15,21,39,278,34,23,16,126,33,25,26,081,30*70
$GPGSV,4,3,14,26,11,175,19,28,83,202,29,31,52,212,36,32,54,025,31*7A
$GPGSV,4,4,14,46,40,232,35,48,43,227,36*76
$GPGLL,3037.82114,N,09624.26109,W,185551.00,A,A*7A
$GPRMC,185552.00,A,3037.82082,N,09624.26139,W,1.560,218.81,121023,,,A*70
$GPVTG,218.81,T,,M,1.560,N,2.889,K,A*36
$GPGGA,185552.00,3037.82082,N,09624.26139,W,1,10,0.88,95.6,M,-24.7,M,,*56
$GPGSA,A,3,28,32,10,31,21,02,25,23,26,12,,,1.51,0.88,1.23*0F
$GPGSV,4,1,14,01,27,308,29,02,34,290,31,03,00,313,,10,52,112,24*71
$GPGSV,4,2,14,12,07,047,13,21,39,278,35,23,16,126,33,25,26,081,30*77
$GPGSV,4,3,14,26,11,175,19,28,83,202,28,31,52,212,39,32,54,025,31*74
$GPGSV,4,4,14,46,40,232,37,48,43,227,37*75
$GPGLL,3037.82082,N,09624.26139,W,185552.00,A,A*74
$GPGSV,4,1,14,01,27,308,32,02,34,290,33,03,00,313,,10,52,112,27*7A
$GPGSV,4,2,14,12,07,047,15,21,39,278,37,23,16,126,32,25,26,081,30*72
$GPGSV,4,3,14,26,11,175,18,28,83,202,33,31,52,212,37,32,54,025,31*71
$GPGSV,4,4,14,46,40,232,38,48,43,227,37*7A
$GPGLL,3037.82018,N,09624.26188,W,185554.00,A,A*7B
$GPRMC,185555.00,A,3037.81985,N,09624.26215,W,1.639,221.22,121023,,,A*7B
$GPVTG,221.22,T,,M,1.639,N,3.035,K,A*34
$GPGGA,185555.00,3037.81985,N,09624.26215,W,1,10,0.88,95.9,M,-24.7,M,,*5E
$GPGSA,A,3,28,32,10,31,21,02,25,23,26,12,,,1.51,0.88,1.23*0F
$GPGSV,4,1,14,01,27,308,31,02,34,290,35,03,00,313,,10,52,112,27*7F
$GPGSV,4,2,14,12,07,047,15,21,39,278,35,23,16,126,31,25,26,081,30*73
$GPGSV,4,3,14,26,11,175,19,28,83,202,28,31,52,212,38,32,54,025,30*74
$GPGSV,4,4,14,46,40,232,37,48,43,227,35*77
$GPGLL,3037.81985,N,09624.26215,W,185555.00,A,A*73
$GPRMC,185556.00,A,3037.81952,N,09624.26245,W,1.503,219.25,121023,,,A*71
$GPVTG,219.25,T,,M,1.503,N,2.784,K,A*3E
$GPGGA,185556.00,3037.81952,N,09624.26245,W,1,10,0.88,96.0,M,-24.7,M,,*58
$GPGSA,A,3,28,32,10,31,21,02,25,23,26,12,,,1.51,0.88,1.23*0F
$GPGSV,4,1,14,01,27,308,30,02,34,290,32,03,00,313,,10,52,112,26*78
$GPGSV,4,2,14,12,07,047,15,21,39,278,36,23,16,126,31,25,26,081,30*70
$GPGSV,4,3,14,26,11,175,20,28,83,202,28,31,52,212,37,32,54,025,31*70
$GPGSV,4,4,14,46,40,232,36,48,43,227,35*76
$GPGLL,3037.81952,N,09624.26245,W,185556.00,A,A*7F
$GPRMC,185557.00,A,3037.81922,N,09624.26272,W,1.491,219.92,121023,,,A*75
$GPVTG,219.92,T,,M,1.491,N,2.762,K,A*30
$GPGGA,185557.00,3037.81922,N,09624.26272,W,1,10,0.88,96.1,M,-24.7,M,,*5B
$GPGSA,A,3,28,32,10,31,21,02,25,23,26,12,,,1.51,0.88,1.23*0F
$GPGSV,4,1,14,01,27,308,24,02,34,290,36,03,00,313,,10,52,112,27*78
$GPGSV,4,2,14,12,07,047,15,21,39,278,38,23,16,126,32,25,26,081,29*75
$GPGSV,4,3,14,26,11,175,21,28,83,202,28,31,52,212,37,32,54,025,31*71
$GPGSV,4,4,14,46,40,232,38,48,43,227,36*7B
$GPGLL,3037.81922,N,09624.26272,W,185557.00,A,A*7D
$GPRMC,185558.00,A,3037.81893,N,09624.26308,W,1.615,223.39,121023,,,A*7B
$GPVTG,223.39,T,,M,1.615,N,2.991,K,A*34
$GPGGA,185558.00,3037.81893,N,09624.26308,W,1,10,0.88,96.2,M,-24.7,M,,*50
$GPGSA,A,3,28,32,10,31,21,02,25,23,26,12,,,1.51,0.88,1.23*0F
$GPGSV,4,1,14,01,27,308,27,02,34,290,35,03,00,313,,10,52,112,26*79
$GPGSV,4,2,14,12,07,047,16,21,39,277,36,23,16,126,32,25,26,081,30*7F
$GPGSV,4,3,14,26,11,175,23,28,83,202,28,31,52,212,37,32,54,025,29*7A
$GPGSV,4,4,14,46,40,232,36,48,43,227,36*75
$GPGLL,3037.81893,N,09624.26308,W,185558.00,A,A*75
$GPRMC,185559.00,A,3037.81866,N,09624.26338,W,1.400,222.28,121023,,,A*74
$GPVTG,222.28,T,,M,1.400,N,2.594,K,A*3A
$GPGGA,185559.00,3037.81866,N,09624.26338,W,1,10,0.88,96.3,M,-24.7,M,,*59
$GPGSA,A,3,28,32,10,31,21,02,25,23,26,12,,,1.51,0.88,1.23*0F
$GPGSV,4,1,14,01,27,308,28,02,34,290,33,03,00,313,,10,52,112,27*71
$GPGSV,4,2,14,12,07,047,15,21,39,277,38,23,16,126,30,25,26,081,30*70
$GPGSV,4,3,14,26,11,175,23,28,83,202,29,31,52,212,37,32,54,025,29*7B
$GPGSV,4,4,14,46,40,232,37,48,43,227,35*77
$GPGLL,3037.81866,N,09624.26338,W,185559.00,A,A*7D
$GPRMC,185600.00,A,3037.81834,N,09624.26372,W,1.574,221.40,121023,,,A*7D
$GPVTG,221.40,T,,M,1.574,N,2.916,K,A*33
$GPGGA,185600.00,3037.81834,N,09624.26372,W,1,10,0.88,96.2,M,-24.7,M,,*5E
$GPGSA,A,3,28,32,10,31,21,02,25,23,26,12,,,1.51,0.88,1.23*0F
$GPGSV,4,1,14,01,27,308,28,02,34,290,35,03,00,313,,10,52,112,29*79
$GPGSV,4,2,14,12,07,047,16,21,39,277,37,23,15,126,35,25,26,081,30*7A
$GPGSV,4,3,14,26,11,175,21,28,83,202,33,31,52,212,37,32,54,025,30*7A
$GPGSV,4,4,14,46,40,232,38,48,43,227,36*7B
$GPGLL,3037.81834,N,09624.26372,W,185600.00,A,A*7B
$GPRMC,185601.00,A,3037.81807,N,09624.26406,W,1.617,223.67,121023,,,A*79
$GPVTG,223.67,T,,M,1.617,N,2.995,K,A*39
$GPGGA,185601.00,3037.81807,N,09624.26406,W,1,10,0.88,96.1,M,-24.7,M,,*58
$GPGSA,A,3,28,32,10,31,21,02,25,23,26,12,,,1.51,0.88,1.23*0F
$GPGSV,4,1,14,01,27,308,29,02,34,290,35,03,00,313,,10,52,112,29*78
$GPGSV,4,2,14,12,07,047,18,21,39,277,37,23,15,126,31,25,26,081,30*70
$GPGSV,4,3,14,26,11,175,22,28,83,202,32,31,52,212,37,32,54,025,30*78
$GPGSV,4,4,14,46,40,232,38,48,43,227,36*7B
$GPGLL,3037.81807,N,09624.26406,W,185601.00,A,A*7E
$GPRMC,185602.00,A,3037.81778,N,09624.26437,W,1.362,220.77,121023,,,A*7A
$GPVTG,220.77,T,,M,1.362,N,2.522,K,A*3C
$GPGGA,185602.00,3037.81778,N,09624.26437,W,1,10,0.88,96.2,M,-24.7,M,,*5D
$GPGSA,A,3,28,32,10,31,21,02,25,23,26,12,,,1.51,0.88,1.23*0F
$GPGSV,4,1,14,01,27,308,29,02,34,290,37,03,00,313,,10,52,112,29*7A
$GPGSV,4,2,14,12,07,047,20,21,39,277,39,23,15,126,32,25,26,081,30*76
$GPGSV,4,3,14,26,11,175,22,28,83,202,32,31,52,212,37,32,54,025,31*79
$GPGSV,4,4,14,46,40,232,37,48,43,227,37*75
$GPGLL,3037.81778,N,09624.26437,W,185602.00,A,A*78
$GPRMC,185603.00,A,3037.81759,N,09624.26465,W,1.155,222.12,121023,,,A*78
$GPVTG,222.12,T,,M,1.155,N,2.139,K,A*35
$GPGGA,185603.00,3037.81759,N,09624.26465,W,1,10,0.88,96.3,M,-24.7,M,,*59
$GPGSA,A,3,28,32,10,31,21,02,25,23,26,12,,,1.51,0.88,1.23*0F
$GPGSV,4,1,14,01,27,308,30,02,34,290,35,03,00,313,,10,52,112,33*7B
$GPGSV,4,2,14,12,07,047,20,21,39,277,37,23,15,126,33,25,26,081,30*79
$GPGSV,4,3,14,26,11,175,21,28,83,202,33,31,52,212,36,32,54,025,31*7A
$GPGSV,4,4,14,46,40,232,39,48,43,227,36*7A
$GPGLL,3037.81759,N,09624.26465,W,185603.00,A,A*7D
$GPRMC,185604.00,A,3037.81740,N,09624.26497,W,1.296,228.14,121023,,,A*7A
$GPVTG,228.14,T,,M,1.296,N,2.399,K,A*3D
$GPGGA,185604.00,3037.81740,N,09624.26497,W,1,10,0.88,96.3,M,-24.7,M,,*5B
$GPGSA,A,3,28,32,10,31,21,02,25,23,26,12,,,1.51,0.88,1.23*0F
$GPGSV,4,1,14,01,27,308,23,02,34,290,35,03,00,313,,10,52,112,29*72
$GPGSV,4,2,14,12,07,047,20,21,39,277,38,23,15,126,33,25,26,081,31*77
$GPGSV,4,3,14,26,11,175,22,28,83,202,33,31,52,212,36,32,54,025,31*79
$GPGSV,4,4,14,46,40,232,38,48,43,227,36*7B
$GPGLL,3037.81740,N,09624.26497,W,185604.00,A,A*7F
$GPRMC,185605.00,A,3037.81721,N,09624.26526,W,1.232,226.65,121023,,,A*71
$GPVTG,226.65,T,,M,1.232,N,2.282,K,A*30
$GPGGA,185605.00,3037.81721,N,09624.26526,W,1,10,0.88,96.4,M,-24.7,M,,*51
$GPGSA,A,3,28,32,10,31,21,02,25,23,26,12,,,1.51,0.88,1.23*0F
$GPGSV,4,1,14,01,27,308,26,02,34,290,35,03,00,313,,10,52,112,29*77
$GPGSV,4,2,14,12,07,047,20,21,39,277,39,23,15,126,31,25,26,081,31*74
$GPGSV,4,3,14,26,11,175,22,28,83,202,32,31,52,212,37,32,54,025,32*7A
$GPGSV,4,4,14,46,40,232,37,48,43,227,36*74
$GPGLL,3037.81721,N,09624.26526,W,185605.00,A,A*72
$GPRMC,185606.00,A,3037.81699,N,09624.26552,W,1.128,225.88,121023,,,A*7B
$GPVTG,225.88,T,,M,1.128,N,2.090,K,A*39
$GPGGA,185606.00,3037.81699,N,09624.26552,W,1,10,0.88,96.2,M,-24.7,M,,*55
$GPGSA,A,3,28,32,10,31,21,02,25,23,26,12,,,1.51,0.88,1.23*0F
$GPGSV,4,1,14,01,27,308,26,02,34,290,35,03,00,313,,10,52,112,28*76
$GPGSV,4,2,14,12,07,047,19,21,39,277,40,23,15,126,30,25,26,081,30*70
$GPGSV,4,3,14,26,11,175,22,28,83,202,31,31,52,212,36,32,54,025,31*7B
$GPGSV,4,4,14,46,40,232,38,48,43,227,35*78
$GPGLL,3037.81699,N,09624.26552,W,185606.00,A,A*70
$GPRMC,185607.00,A,3037.81675,N,09624.26585,W,1.505,227.07,121023,,,A*7C
$GPVTG,227.07,T,,M,1.505,N,2.788,K,A*39
$GPGGA,185607.00,3037.81675,N,09624.26585,W,1,10,0.88,96.1,M,-24.7,M,,*5F
$GPGSA,A,3,28,32,10,31,21,02,25,23,26,12,,,1.51,0.88,1.23*0F
$GPGSV,4,1,14,01,27,308,24,02,34,290,38,03,00,313,,10,52,112,28*79
$GPGSV,4,2,14,12,07,047,19,21,39,277,39,23,15,126,30,25,26,081,30*7E
$GPGSV,4,3,14,26,11,175,22,28,83,202,30,31,52,212,37,32,54,025,30*7A
$GPGSV,4,4,14,46,40,232,36,48,43,227,37*74
$GPGLL,3037.81675,N,09624.26585,W,185607.00,A,A*79
$GPRMC,185608.00,A,3037.81646,N,09624.26620,W,1.479,223.88,121023,,,A*76
$GPVTG,223.88,T,,M,1.479,N,2.738,K,A*3B
$GPGGA,185608.00,3037.81646,N,09624.26620,W,1,10,0.88,96.1,M,-24.7,M,,*5C
$GPGSA,A,3,28,32,10,31,21,02,25,23,26,12,,,1.51,0.88,1.23*0F
$GPGSV,4,1,14,01,27,308,25,02,34,290,38,03,00,313,,10,52,112,27*77
$GPGSV,4,2,14,12,07,047,19,21,39,277,38,23,15,126,30,25,26,081,30*7F
$GPGSV,4,3,14,26,11,175,23,28,83,202,33,31,52,212,36,32,54,025,30*79
$GPGSV,4,4,14,46,40,232,37,48,43,227,36*74
$GPGLL,3037.81646,N,09624.26620,W,185608.00,A,A*7A
$GPRMC,185609.00,A,3037.81624,N,09624.26647,W,1.218,222.64,121023,,,A*70
$GPVTG,222.64,T,,M,1.218,N,2.255,K,A*37
$GPGGA,185609.00,3037.81624,N,09624.26647,W,1,10,0.88,96.1,M,-24.7,M,,*58
$GPGSA,A,3,28,32,10,31,21,02,25,23,26,12,,,1.51,0.88,1.23*0F
$GPGSV,4,1,14,01,27,308,30,02,34,290,38,03,00,313,,10,52,112,29*7D
$GPGSV,4,2,14,12,07,047,19,21,39,277,38,23,15,126,31,25,26,081,29*76
$GPGSV,4,3,14,26,11,175,22,28,83,202,33,31,52,212,36,32,54,025,31*79
$GPGSV,4,4,14,46,40,232,39,48,43,227,35*79
$GPGLL,3037.81624,N,09624.26647,W,185609.00,A,A*7E
$GPRMC,185610.00,A,3037.81601,N,09624.26677,W,1.328,225.01,121023,,,A*7A
$GPVTG,225.01,T,,M,1.328,N,2.459,K,A*3B
$GPGGA,185610.00,3037.81601,N,09624.26677,W,1,10,0.88,96.1,M,-24.7,M,,*54
$GPGSA,A,3,28,32,10,31,21,02,25,23,26,12,,,1.51,0.88,1.23*0F
$GPGSV,4,1,14,01,27,308,25,02,34,290,38,03,00,313,,10,52,112,27*77
$GPGSV,4,2,14,12,07,047,20,21,39,277,38,23,15,126,30,25,26,081,29*7D
$GPGSV,4,3,14,26,11,175,23,28,83,202,32,31,52,212,37,32,54,025,31*78
$GPGSV,4,4,14,46,40,232,37,48,43,227,36*74
$GPGLL,3037.81601,N,09624.26677,W,185610.00,A,A*72
$GPRMC,185611.00,A,3037.81578,N,09624.26707,W,1.362,224.10,121023,,,A*7F
$GPVTG,224.10,T,,M,1.362,N,2.522,K,A*39
$GPGGA,185611.00,3037.81578,N,09624.26707,W,1,10,0.88,96.2,M,-24.7,M,,*5D
$GPGSA,A,3,28,32,10,31,21,02,25,23,26,12,,,1.51,0.88,1.23*0F
$GPGSV,4,1,14,01,27,308,25,02,34,290,38,03,00,313,,10,52,112,27*77
$GPGSV,4,2,14,12,07,047,20,21,39,277,39,23,15,126,31,25,26,081,30*75
$GPGSV,4,3,14,26,11,175,22,28,83,202,32,31,52,212,37,32,54,025,34*7C
$GPGSV,4,4,14,46,40,232,37,48,43,227,35*77
$GPGLL,3037.81578,N,09624.26707,W,185611.00,A,A*78
$GPRMC,185612.00,A,3037.81554,N,09624.26738,W,1.269,227.49,121023,,,A*7B
$GPVTG,227.49,T,,M,1.269,N,2.349,K,A*37
$GPGGA,185612.00,3037.81554,N,09624.26738,W,1,10,0.88,96.3,M,-24.7,M,,*5D
$GPGSA,A,3,28,32,10,31,21,02,25,23,26,12,,,1.51,0.88,1.23*0F
$GPGSV,4,1,14,01,27,308,25,02,34,290,38,03,00,313,,10,52,112,27*77
$GPGSV,4,2,14,12,07,047,19,21,39,277,37,23,15,126,31,25,26,081,30*71
$GPGSV,4,3,14,26,11,175,23,28,83,202,31,31,52,212,36,32,54,025,31*7A
$GPGSV,4,4,14,46,40,232,37,48,43,227,35*77
$GPGLL,3037.81554,N,09624.26738,W,185612.00,A,A*79
$GPRMC,185613.00,A,3037.81531,N,09624.26770,W,1.390,227.97,121023,,,A*71
$GPVTG,227.97,T,,M,1.390,N,2.574,K,A*3B
$GPGGA,185613.00,3037.81531,N,09624.26770,W,1,10,0.88,96.4,M,-24.7,M,,*54
$GPGSA,A,3,28,32,10,31,21,02,25,23,26,12,,,1.51,0.88,1.23*0F
$GPGSV,4,1,14,01,27,308,24,02,34,290,38,03,00,313,,10,52,112,25*74
$GPGSV,4,2,14,12,07,047,17,21,39,277,38,23,15,126,29,25,26,081,31*78
$GPGSV,4,3,14,26,11,175,24,28,83,202,30,31,52,212,36,32,54,025,32*7F
$GPGSV,4,4,14,46,40,232,35,48,43,227,35*75
$GPGLL,3037.81531,N,09624.26770,W,185613.00,A,A*77
$GPRMC,185614.00,A,3037.81501,N,09624.26800,W,1.475,222.80,121023,,,A*72
$GPVTG,222.80,T,,M,1.475,N,2.732,K,A*34
$GPGGA,185614.00,3037.81501,N,09624.26800,W,1,10,0.88,96.5,M,-24.7,M,,*59
$GPGSA,A,3,28,32,10,31,21,02,25,23,26,12,,,1.51,0.88,1.23*0F
$GPGSV,4,1,14,01,27,308,25,02,34,290,37,03,00,313,,10,52,112,25*7A
$GPGSV,4,2,14,12,07,047,18,21,39,277,38,23,15,126,32,25,26,081,31*7D
$GPGSV,4,3,14,26,11,175,24,28,83,202,31,31,52,212,37,32,54,025,33*7E
$GPGSV,4,4,14,46,40,232,36,48,43,227,36*75
$GPGLL,3037.81501,N,09624.26800,W,185614.00,A,A*7B
$GPRMC,185615.00,A,3037.81475,N,09624.26830,W,1.358,226.03,121023,,,A*75
$GPVTG,226.03,T,,M,1.358,N,2.514,K,A*35
$GPGGA,185615.00,3037.81475,N,09624.26830,W,1,10,0.88,96.5,M,-24.7,M,,*59
$GPGSA,A,3,28,32,10,31,21,02,25,23,26,12,,,1.51,0.88,1.23*0F
$GPGSV,4,1,14,01,27,308,30,02,34,290,37,03,00,313,,10,52,112,25*7E
$GPGSV,4,2,14,12,07,047,18,21,39,277,36,23,15,126,31,25,26,081,31*70
$GPGSV,4,3,14,26,11,175,23,28,83,202,31,31,52,212,37,32,54,025,35*7F
$GPGSV,4,4,14,46,40,232,36,48,43,227,35*76
$GPGLL,3037.81475,N,09624.26830,W,185615.00,A,A*7B
$GPRMC,185616.00,A,3037.81451,N,09624.26862,W,1.384,225.23,121023,,,A*77
$GPVTG,225.23,T,,M,1.384,N,2.564,K,A*32
$GPGGA,185616.00,3037.81451,N,09624.26862,W,1,10,0.88,96.6,M,-24.7,M,,*58
$GPGSA,A,3,28,32,10,31,21,02,25,23,26,12,,,1.51,0.88,1.23*0F
$GPGSV,4,1,14,01,27,308,29,02,34,290,36,03,00,313,,10,52,112,25*77
$GPGSV,4,2,14,12,07,047,17,21,39,277,36,23,15,126,26,25,26,081,30*78
$GPGSV,4,3,14,26,11,175,24,28,83,202,30,31,52,212,37,32,54,025,34*78
$GPGSV,4,4,14,46,40,232,36,48,43,227,35*76
$GPGLL,3037.81451,N,09624.26862,W,185616.00,A,A*79
$GPRMC,185617.00,A,3037.81422,N,09624.26890,W,1.435,220.29,121023,,,A*7D
$GPVTG,220.29,T,,M,1.435,N,2.657,K,A*33
$GPGGA,185617.00,3037.81422,N,09624.26890,W,1,10,0.88,96.7,M,-24.7,M,,*51
$GPGSA,A,3,28,32,10,31,21,02,25,23,26,12,,,1.51,0.88,1.23*0F
$GPGSV,4,1,14,01,27,308,29,02,34,290,32,03,00,313,,10,52,112,25*73
$GPGSV,4,2,14,12,07,047,18,21,39,277,36,23,15,126,32,25,26,081,29*7A
$GPGSV,4,3,14,26,11,175,24,28,83,202,30,31,52,212,36,32,54,025,33*7E
$GPGSV,4,4,14,46,40,232,36,48,43,227,37*74
$GPGLL,3037.81422,N,09624.26890,W,185617.00,A,A*71
$GPRMC,185618.00,A,3037.81392,N,09624.26921,W,1.489,221.81,121023,,,A*71
$GPVTG,221.81,T,,M,1.489,N,2.758,K,A*39
$GPGGA,185618.00,3037.81392,N,09624.26921,W,1,10,0.88,96.7,M,-24.7,M,,*59
$GPGSA,A,3,28,32,10,31,21,02,25,23,26,12,,,1.51,0.88,1.23*0F
$GPGSV,4,1,14,01,27,308,28,02,34,290,30,03,00,313,,10,52,112,30*74
$GPGSV,4,2,14,12,07,047,21,21,39,277,38,23,15,126,32,25,26,081,30*76
$GPGSV,4,3,14,26,11,175,23,28,83,202,30,31,52,212,36,32,54,025,33*79
$GPGSV,4,4,14,46,40,232,36,48,43,227,35*76
$GPGLL,3037.81392,N,09624.26921,W,185618.00,A,A*79
$GPRMC,185619.00,A,3037.81363,N,09624.26951,W,1.372,220.93,121023,,,A*78
$GPVTG,220.93,T,,M,1.372,N,2.541,K,A*32
$GPGGA,185619.00,3037.81363,N,09624.26951,W,1,10,0.88,96.9,M,-24.7,M,,*5F
$GPGSA,A,3,28,32,10,31,21,02,25,23,26,12,,,1.51,0.88,1.23*0F
$GPGSV,4,1,14,01,27,308,28,02,34,290,33,03,00,313,,10,52,112,28*7E
$GPGSV,4,2,14,12,07,047,20,21,39,277,39,23,15,126,32,25,26,081,31*77
$GPGSV,4,3,14,26,11,175,24,28,83,202,31,31,52,212,37,32,54,025,31*7C
$GPGSV,4,4,14,46,40,232,38,48,43,227,35*78
$GPGLL,3037.81363,N,09624.26951,W,185619.00,A,A*71
$GPRMC,185620.00,A,3037.81337,N,09624.26979,W,1.296,222.66,121023,,,A*7A
$GPVTG,222.66,T,,M,1.296,N,2.401,K,A*34
$GPGGA,185620.00,3037.81337,N,09624.26979,W,1,10,0.88,96.9,M,-24.7,M,,*5E
$GPGSA,A,3,28,32,10,31,21,02,25,23,26,12,,,1.51,0.88,1.23*0F
$GPGSV,4,1,14,01,27,308,28,02,34,290,34,03,00,313,,10,52,112,27*76
$GPGSV,4,2,14,12,07,047,21,21,39,277,40,23,15,126,31,25,26,081,30*7A
$GPGSV,4,3,14,26,11,175,24,28,83,202,31,31,52,212,35,32,54,025,31*7E
$GPGSV,4,4,14,46,40,232,38,48,43,227,37*7A
$GPGLL,3037.81337,N,09624.26979,W,185620.00,A,A*70
$GPRMC,185621.00,A,3037.81313,N,09624.27010,W,1.320,227.88,121023,,,A*73
$GPVTG,227.88,T,,M,1.320,N,2.444,K,A*3C
$GPGGA,185621.00,3037.81313,N,09624.27010,W,1,10,0.88,96.9,M,-24.7,M,,*5E
$GPGSA,A,3,28,32,10,31,21,02,25,23,26,12,,,1.51,0.88,1.23*0F
$GPGSV,4,1,14,01,27,308,33,02,34,290,34,03,00,313,,10,52,112,28*73
$GPGSV,4,2,14,12,07,047,19,21,39,277,39,23,15,126,31,25,26,081,31*7E
$GPGSV,4,3,14,26,11,175,25,28,83,202,31,31,52,212,36,32,54,025,31*7C
$GPGSV,4,4,14,46,40,232,36,48,43,227,35*76
$GPGLL,3037.81313,N,09624.27010,W,185621.00,A,A*70
$GPRMC,185622.00,A,3037.81290,N,09624.27034,W,1.121,222.79,121023,,,A*74
$GPVTG,222.79,T,,M,1.121,N,2.076,K,A*31
$GPGGA,185622.00,3037.81290,N,09624.27034,W,1,10,0.88,97.0,M,-24.7,M,,*59
$GPGSA,A,3,28,32,10,31,21,02,25,23,26,12,,,1.51,0.88,1.23*0F
$GPGSV,4,1,14,01,27,308,27,02,34,290,38,03,00,313,,10,52,112,27*75
$GPGSV,4,2,14,12,07,047,19,21,39,277,39,23,15,126,31,25,26,081,30*7F
$GPGSV,4,3,14,26,11,175,24,28,83,202,30,31,52,212,38,32,54,025,34*77
$GPGSV,4,4,14,46,40,232,36,48,43,227,35*76
$GPGLL,3037.81290,N,09624.27034,W,185622.00,A,A*7F
$GPRMC,185623.00,A,3037.81266,N,09624.27058,W,1.254,223.68,121023,,,A*76
$GPVTG,223.68,T,,M,1.254,N,2.322,K,A*33
$GPGGA,185623.00,3037.81266,N,09624.27058,W,1,10,0.88,97.0,M,-24.7,M,,*5B
$GPGSA,A,3,28,32,10,31,21,02,25,23,26,12,,,1.51,0.88,1.23*0F
$GPGSV,4,1,14,01,28,307,29,02,34,290,37,03,00,313,,10,52,112,27*74
$GPGSV,4,2,14,12,07,047,18,21,39,277,38,23,15,126,30,25,26,081,30*7E
$GPGSV,4,3,14,26,11,175,25,28,83,202,30,31,52,212,36,32,54,025,30*7C
$GPGSV,4,4,14,46,40,232,36,48,43,227,35*76
$GPGLL,3037.81266,N,09624.27058,W,185623.00,A,A*7D
$GPRMC,185624.00,A,3037.81245,N,09624.27090,W,1.355,228.39,121023,,,A*7B
$GPVTG,228.39,T,,M,1.355,N,2.510,K,A*3B
$GPGGA,185624.00,3037.81245,N,09624.27090,W,1,10,0.88,97.1,M,-24.7,M,,*58
$GPGSA,A,3,28,32,10,31,21,02,25,23,26,12,,,1.51,0.88,1.23*0F
$GPGSV,4,1,14,01,28,307,28,02,34,290,37,03,00,313,,10,52,112,27*75
$GPGSV,4,2,14,12,07,047,18,21,39,277,36,23,15,126,31,25,26,081,30*71
$GPGSV,4,3,14,26,11,175,25,28,83,202,29,31,52,212,36,32,54,025,31*75
$GPGSV,4,4,14,46,40,232,36,48,43,227,35*76
$GPGLL,3037.81245,N,09624.27090,W,185624.00,A,A*7F
$GPRMC,185625.00,A,3037.81222,N,09624.27125,W,1.336,226.09,121023,,,A*7C
$GPVTG,226.09,T,,M,1.336,N,2.475,K,A*31
$GPGGA,185625.00,3037.81222,N,09624.27125,W,1,10,0.88,97.0,M,-24.7,M,,*56
$GPGSA,A,3,28,32,10,31,21,02,25,23,26,12,,,1.51,0.88,1.23*0F
$GPGSV,4,1,14,01,28,307,29,02,34,290,37,03,01,313,,10,52,112,28*7A
$GPGSV,4,2,14,12,07,047,18,21,39,277,38,23,15,126,31,25,26,081,30*7F
$GPGSV,4,3,14,26,11,175,25,28,83,202,29,31,52,212,36,32,54,025,31*75
$GPGSV,4,4,14,46,40,232,35,48,43,227,36*76
$GPGLL,3037.81222,N,09624.27125,W,185625.00,A,A*70
$GPRMC,185626.00,A,3037.81195,N,09624.27152,W,1.195,225.82,121023,,,A*7B
$GPVTG,225.82,T,,M,1.195,N,2.213,K,A*3C
$GPGGA,185626.00,3037.81195,N,09624.27152,W,1,10,0.88,97.2,M,-24.7,M,,*58
$GPGSA,A,3,28,32,10,31,21,02,25,23,26,12,,,1.51,0.88,1.23*0F
$GPGSV,4,1,14,01,28,307,28,02,34,290,38,03,01,313,,10,52,112,27*7B
$GPGSV,4,2,14,12,07,047,19,21,39,277,39,23,15,126,31,25,26,081,31*7E
$GPGSV,4,3,14,26,11,175,25,28,83,202,30,31,52,212,36,32,54,025,31*7D
$GPGSV,4,4,14,46,40,232,38,48,43,227,36*7B
$GPGLL,3037.81195,N,09624.27152,W,185626.00,A,A*7C
$GPRMC,185627.00,A,3037.81171,N,09624.27179,W,1.296,227.59,121023,,,A*7D
$GPVTG,227.59,T,,M,1.296,N,2.400,K,A*3C
$GPGGA,185627.00,3037.81171,N,09624.27179,W,1,10,0.88,97.3,M,-24.7,M,,*5B
$GPGSA,A,3,28,32,10,31,21,02,25,23,26,12,,,1.51,0.88,1.23*0F
$GPGSV,4,1,14,01,28,307,28,02,34,290,37,03,01,313,,10,52,112,25*76
$GPGSV,4,2,14,12,07,047,18,21,39,277,39,23,15,126,31,25,26,081,30*7E
$GPGSV,4,3,14,26,11,175,26,28,83,202,29,31,52,212,36,32,54,025,31*76
$GPGSV,4,4,14,46,40,232,35,48,43,227,37*77
$GPGLL,3037.81171,N,09624.27179,W,185627.00,A,A*7E
$GPRMC,185628.00,A,3037.81147,N,09624.27205,W,1.215,223.37,121023,,,A*78
$GPVTG,223.37,T,,M,1.215,N,2.249,K,A*30
$GPGGA,185628.00,3037.81147,N,09624.27205,W,1,10,0.88,97.4,M,-24.7,M,,*5E
$GPGSA,A,3,28,32,10,31,21,02,25,23,26,12,,,1.51,0.88,1.23*0F
$GPGSV,4,1,14,01,28,307,22,02,34,290,37,03,01,313,,10,52,112,24*7D
$GPGSV,4,2,14,12,07,047,19,21,39,277,36,23,15,126,31,25,26,081,30*70
$GPGSV,4,3,14,26,11,175,26,28,83,202,30,31,52,212,38,32,54,025,35*74
$GPGSV,4,4,14,46,40,232,35,48,43,227,35*75
$GPGLL,3037.81147,N,09624.27205,W,185628.00,A,A*7C
$GPRMC,185629.00,A,3037.81122,N,09624.27232,W,1.219,224.85,121023,,,A*7C
$GPVTG,224.85,T,,M,1.219,N,2.257,K,A*3D
$GPGGA,185629.00,3037.81122,N,09624.27232,W,1,10,0.88,97.5,M,-24.7,M,,*59
$GPGSA,A,3,28,32,10,31,21,02,25,23,26,12,,,1.51,0.88,1.23*0F
$GPGSV,4,1,14,01,28,307,31,02,34,290,35,03,01,313,,10,52,112,23*7A
$GPGSV,4,2,14,12,07,047,17,21,39,277,36,23,15,126,31,25,26,081,30*7E
$GPGSV,4,3,14,26,11,175,25,28,83,202,29,31,52,212,36,32,54,025,33*77
$GPGSV,4,4,14,46,40,232,31,48,43,227,33*77
$GPGLL,3037.81122,N,09624.27232,W,185629.00,A,A*7A
$GPRMC,185630.00,A,3037.81099,N,09624.27259,W,1.173,226.63,121023,,,A*7D
$GPVTG,226.63,T,,M,1.173,N,2.172,K,A*3C
$GPGGA,185630.00,3037.81099,N,09624.27259,W,1,10,0.88,97.7,M,-24.7,M,,*5F
$GPGSA,A,3,28,32,10,31,21,02,25,23,26,12,,,1.51,0.88,1.23*0F
$GPGSV,4,1,14,01,28,307,30,02,34,290,35,03,01,313,,10,52,112,24*7C
$GPGSV,4,2,14,12,07,047,18,21,39,277,38,23,15,126,30,25,26,081,29*76
$GPGSV,4,3,14,26,11,175,25,28,83,202,28,31,52,212,38,32,54,025,32*79
$GPGSV,4,4,14,46,40,232,32,48,43,227,33*74
$GPGLL,3037.81099,N,09624.27259,W,185630.00,A,A*7E
$GPRMC,185631.00,A,3037.81071,N,09624.27284,W,1.365,220.23,121023,,,A*7D
$GPVTG,220.23,T,,M,1.365,N,2.528,K,A*30
$GPGGA,185631.00,3037.81071,N,09624.27284,W,1,10,0.88,97.7,M,-24.7,M,,*58
$GPGSA,A,3,28,32,10,31,21,02,25,23,26,12,,,1.51,0.88,1.23*0F
$GPGSV,4,1,14,01,28,307,29,02,34,290,34,03,01,313,,10,52,112,25*74
$GPGSV,4,2,14,12,07,047,17,21,39,277,38,23,15,126,31,25,26,081,29*78
$GPGSV,4,3,14,26,11,175,27,28,83,202,28,31,52,212,36,32,54,025,31*76
$GPGSV,4,4,14,46,40,232,36,48,43,227,36*75
$GPGLL,3037.81071,N,09624.27284,W,185631.00,A,A*79
$GPRMC,185632.00,A,3037.81042,N,09624.27316,W,1.438,224.79,121023,,,A*70
$GPVTG,224.79,T,,M,1.438,N,2.662,K,A*39
$GPGGA,185632.00,3037.81042,N,09624.27316,W,1,10,0.88,97.8,M,-24.7,M,,*5E
$GPGSA,A,3,28,32,10,31,21,02,25,23,26,12,,,1.51,0.88,1.23*0F
$GPGSV,4,1,14,01,28,307,28,02,34,290,37,03,01,313,,10,51,112,26*76
$GPGSV,4,2,14,12,07,047,17,21,39,277,36,23,15,126,30,25,26,081,30*7F
$GPGSV,4,3,14,26,11,175,27,28,83,202,29,31,52,212,38,32,54,025,32*7A
$GPGSV,4,4,14,46,40,232,34,48,43,227,33*72
$GPGLL,3037.81042,N,09624.27316,W,185632.00,A,A*70
$GPRMC,185633.00,A,3037.81012,N,09624.27343,W,1.250,221.64,121023,,,A*75
$GPVTG,221.64,T,,M,1.250,N,2.315,K,A*3D
$GPGGA,185633.00,3037.81012,N,09624.27343,W,1,10,0.88,98.0,M,-24.7,M,,*5D
$GPGSA,A,3,28,32,10,31,21,02,25,23,26,12,,,1.51,0.88,1.23*0F
$GPGSV,4,1,14,01,28,307,27,02,34,290,37,03,01,313,,10,51,112,26*79
$GPGSV,4,2,14,12,07,047,15,21,39,277,38,23,15,126,29,25,26,081,31*7A
$GPGSV,4,3,14,26,11,175,27,28,83,202,29,31,52,212,37,32,54,025,32*75
$GPGSV,4,4,14,46,40,232,34,48,43,227,33*72
$GPGLL,3037.81012,N,09624.27343,W,185633.00,A,A*74
$GPRMC,185634.00,A,3037.80989,N,09624.27371,W,1.291,226.09,121023,,,A*78
$GPVTG,226.09,T,,M,1.291,N,2.391,K,A*30
$GPGGA,185634.00,3037.80989,N,09624.27371,W,1,10,0.88,98.1,M,-24.7,M,,*50
$GPGSA,A,3,28,32,10,31,21,02,25,23,26,12,,,1.51,0.88,1.23*0F
$GPGSV,4,1,14,01,28,307,29,02,34,290,39,03,01,313,,10,51,112,31*7F
$GPGSV,4,2,14,12,07,047,14,21,39,277,39,23,15,126,30,25,26,081,29*7B
$GPGSV,4,3,14,26,11,175,27,28,83,202,29,31,52,212,37,32,54,025,31*76
$GPGSV,4,4,14,46,40,232,34,48,43,227,33*72
$GPGLL,3037.80989,N,09624.27371,W,185634.00,A,A*78
$GPRMC,185635.00,A,3037.80965,N,09624.27407,W,1.419,231.48,121023,,,A*78
$GPVTG,231.48,T,,M,1.419,N,2.628,K,A*32
$GPGGA,185635.00,3037.80965,N,09624.27407,W,1,10,0.88,98.1,M,-24.7,M,,*55
$GPGSA,A,3,28,32,10,31,21,02,25,23,26,12,,,1.51,0.88,1.23*0F
$GPGSV,4,1,14,01,28,307,30,02,34,290,38,03,01,313,,10,51,112,31*76
$GPGSV,4,2,14,12,07,047,11,21,39,277,37,23,15,126,29,25,26,081,30*70
$GPGSV,4,3,14,26,11,175,27,28,83,202,29,31,52,212,37,32,54,025,32*75
$GPGSV,4,4,14,46,40,232,34,48,43,227,32*73
$GPGLL,3037.80965,N,09624.27407,W,185635.00,A,A*7D
$GPRMC,185636.00,A,3037.80939,N,09624.27433,W,1.282,223.32,121023,,,A*7F
$GPVTG,223.32,T,,M,1.282,N,2.375,K,A*35
$GPGGA,185636.00,3037.80939,N,09624.27433,W,1,10,0.88,98.3,M,-24.7,M,,*5A
$GPGSA,A,3,28,32,10,31,21,02,25,23,26,12,,,1.51,0.88,1.23*0F
$GPGSV,4,1,14,01,28,307,24,02,34,290,35,03,01,313,,10,51,112,29*77
$GPGSV,4,2,14,12,07,047,14,21,39,277,35,23,15,126,31,25,26,081,30*7E
$GPGSV,4,3,14,26,11,175,26,28,83,202,29,31,52,212,38,32,54,025,33*7A
$GPGSV,4,4,14,46,40,232,35,48,43,227,32*72
$GPGLL,3037.80939,N,09624.27433,W,185636.00,A,A*70
$GPRMC,185637.00,A,3037.80909,N,09624.27459,W,1.360,222.67,121023,,,A*7D
$GPVTG,222.67,T,,M,1.360,N,2.518,K,A*34
$GPGGA,185637.00,3037.80909,N,09624.27459,W,1,10,0.88,98.5,M,-24.7,M,,*52
$GPGSA,A,3,28,32,10,31,21,02,25,23,26,12,,,1.51,0.88,1.23*0F
$GPGSV,4,1,14,01,28,307,26,02,34,290,35,03,01,313,,10,51,112,29*75
$GPGSV,4,2,14,12,07,047,16,21,39,277,39,23,15,126,31,25,26,081,31*71
$GPGSV,4,3,14,26,11,175,26,28,83,202,30,31,52,212,37,32,54,025,32*7C
$GPGSV,4,4,14,46,40,232,37,48,43,227,36*74
$GPGLL,3037.80909,N,09624.27459,W,185637.00,A,A*7E
$GPRMC,185638.00,A,3037.80880,N,09624.27487,W,1.526,219.62,121023,,,A*78
$GPVTG,219.62,T,,M,1.526,N,2.825,K,A*3E
$GPGGA,185638.00,3037.80880,N,09624.27487,W,1,10,0.88,98.7,M,-24.7,M,,*5C
$GPGSA,A,3,28,32,10,31,21,02,25,23,26,12,,,1.51,0.88,1.23*0F
$GPGSV,4,1,14,01,28,307,32,02,34,290,28,03,01,313,,10,51,112,29*7C
$GPGSV,4,2,14,12,07,047,17,21,39,277,37,23,15,126,32,25,26,081,30*7C
$GPGSV,4,3,14,26,11,175,26,28,83,202,30,31,52,212,36,32,54,025,32*7D
$GPGSV,4,4,14,46,40,232,35,48,43,227,33*73
$GPGLL,3037.80880,N,09624.27487,W,185638.00,A,A*72
$GPRMC,185639.00,A,3037.80847,N,09624.27515,W,1.419,216.99,121023,,,A*7E
$GPVTG,216.99,T,,M,1.419,N,2.628,K,A*3B
$GPGGA,185639.00,3037.80847,N,09624.27515,W,1,10,0.88,98.9,M,-24.7,M,,*52
$GPGSA,A,3,28,32,10,31,21,02,25,23,26,12,,,1.51,0.88,1.23*0F
$GPGSV,4,1,14,01,28,307,31,02,34,290,30,03,01,313,,10,51,112,30*7E
$GPGSV,4,2,14,12,07,047,19,21,39,277,36,23,15,126,32,25,26,081,30*73
$GPGSV,4,3,14,26,11,175,24,28,83,202,29,31,52,212,36,32,54,025,32*77
$GPGSV,4,4,14,46,40,232,35,48,43,227,36*76
$GPGLL,3037.80847,N,09624.27515,W,185639.00,A,A*72
$GPRMC,185640.00,A,3037.80816,N,09624.27541,W,1.293,217.58,121023,,,A*7D
$GPVTG,217.58,T,,M,1.293,N,2.395,K,A*30
$GPGGA,185640.00,3037.80816,N,09624.27541,W,1,10,0.88,99.0,M,-24.7,M,,*51
$GPGSA,A,3,28,32,10,31,21,02,25,23,26,12,,,1.51,0.88,1.23*0F
$GPGSV,4,1,14,01,28,307,32,02,34,290,30,03,01,313,,10,51,112,30*7D
$GPGSV,4,2,14,12,07,047,19,21,39,277,36,23,15,126,33,25,26,081,30*72
$GPGSV,4,3,14,26,11,175,22,28,83,202,28,31,52,212,38,32,54,025,31*7D
$GPGSV,4,4,14,46,40,232,38,48,43,227,35*78
$GPGLL,3037.80816,N,09624.27541,W,185640.00,A,A*79
$GPRMC,185641.00,A,3037.80785,N,09624.27574,W,1.440,220.46,121023,,,A*7C
$GPVTG,220.46,T,,M,1.440,N,2.666,K,A*3A
$GPGGA,185641.00,3037.80785,N,09624.27574,W,1,10,0.88,99.0,M,-24.7,M,,*53
$GPGSA,A,3,28,32,10,31,21,02,25,23,26,12,,,1.51,0.88,1.23*0F
$GPGSV,4,1,14,01,28,307,32,02,34,290,31,03,01,313,,10,51,112,29*74
$GPGSV,4,2,14,12,07,047,19,21,39,277,34,23,15,126,32,25,26,081,30*71
$GPGSV,4,3,14,26,11,175,24,28,83,202,28,31,52,212,36,32,54,025,31*75
$GPGSV,4,4,14,46,40,232,35,48,43,227,32*72
$GPGLL,3037.80785,N,09624.27574,W,185641.00,A,A*7B
$GPRMC,185642.00,A,3037.80756,N,09624.27605,W,1.373,220.71,121023,,,A*77
$GPVTG,220.71,T,,M,1.373,N,2.543,K,A*3D
$GPGGA,185642.00,3037.80756,N,09624.27605,W,1,10,0.88,99.1,M,-24.7,M,,*5A
$GPGSA,A,3,28,32,10,31,21,02,25,23,26,12,,,1.51,0.88,1.23*0F
$GPGSV,4,1,14,01,28,307,31,02,34,290,33,03,01,313,,10,51,112,29*75
$GPGSV,4,2,14,12,07,047,17,21,39,277,35,23,15,126,31,25,26,081,30*7D
$GPGSV,4,3,14,26,11,175,26,28,83,202,29,31,52,212,38,32,54,025,31*78
$GPGSV,4,4,14,46,40,232,34,48,43,227,32*73
$GPGLL,3037.80756,N,09624.27605,W,185642.00,A,A*73
$GPRMC,185643.00,A,3037.80727,N,09624.27633,W,1.406,221.02,121023,,,A*75
$GPVTG,221.02,T,,M,1.406,N,2.604,K,A*3D
$GPGGA,185643.00,3037.80727,N,09624.27633,W,1,10,0.88,99.3,M,-24.7,M,,*5A
$GPGSA,A,3,28,32,10,31,21,02,25,23,26,12,,,1.51,0.88,1.23*0F
$GPGSV,4,1,14,01,28,307,31,02,34,290,32,03,01,313,,10,51,112,29*74
$GPGSV,4,2,14,12,07,047,16,21,39,277,39,23,15,126,31,25,26,081,30*70
$GPGSV,4,3,14,26,11,175,26,28,83,202,29,31,52,212,37,32,54,025,31*77
$GPGSV,4,4,14,46,40,232,36,48,43,227,35*76
$GPGLL,3037.80727,N,09624.27633,W,185643.00,A,A*71
$GPRMC,185644.00,A,3037.80696,N,09624.27664,W,1.511,223.44,121023,,,A*7C
$GPVTG,223.44,T,,M,1.511,N,2.798,K,A*3E
$GPGGA,185644.00,3037.80696,N,09624.27664,W,1,10,0.88,99.3,M,-24.7,M,,*54
$GPGSA,A,3,28,32,10,31,21,02,25,23,26,12,,,1.51,0.88,1.23*0F
$GPGSV,4,1,14,01,28,307,32,02,34,290,35,03,01,313,,10,51,112,28*71
$GPGSV,4,2,14,12,07,047,16,21,39,277,39,23,15,126,31,25,26,081,30*70
$GPGSV,4,3,14,26,11,175,26,28,83,202,28,31,52,212,37,32,54,025,32*75
$GPGSV,4,4,14,46,40,232,34,48,43,227,35*74
$GPGLL,3037.80696,N,09624.27664,W,185644.00,A,A*7F
$GPRMC,185645.00,A,3037.80665,N,09624.27693,W,1.511,221.66,121023,,,A*7B
$GPVTG,221.66,T,,M,1.511,N,2.798,K,A*3C
$GPGGA,185645.00,3037.80665,N,09624.27693,W,1,10,0.88,99.5,M,-24.7,M,,*57
$GPGSA,A,3,28,32,10,31,21,02,25,23,26,12,,,1.51,0.88,1.23*0F
$GPGSV,4,1,14,01,28,307,32,02,34,290,34,03,01,313,,10,51,112,28*70
$GPGSV,4,2,14,12,07,047,15,21,39,277,34,23,15,126,30,25,26,081,30*7F
$GPGSV,4,3,14,26,11,175,27,28,83,202,29,31,52,212,37,32,54,025,34*73
$GPGSV,4,4,14,46,40,232,33,48,43,227,33*75
$GPGLL,3037.80665,N,09624.27693,W,185645.00,A,A*7A
$GPRMC,185646.00,A,3037.80639,N,09624.27724,W,1.281,222.47,121023,,,A*72
$GPVTG,222.47,T,,M,1.281,N,2.372,K,A*32
$GPGGA,185646.00,3037.80639,N,09624.27724,W,1,10,0.88,99.6,M,-24.7,M,,*53
$GPGSA,A,3,28,32,10,31,21,02,25,23,26,12,,,1.51,0.88,1.23*0F
$GPGSV,4,1,14,01,28,307,32,02,34,290,32,03,01,313,,10,51,112,27*79
$GPGSV,4,2,14,12,07,047,16,21,39,277,34,23,15,126,34,25,26,081,30*78
$GPGSV,4,3,14,26,11,175,27,28,83,202,29,31,52,212,37,32,54,025,31*76
$GPGSV,4,4,14,46,40,232,34,48,43,227,34*75
$GPGLL,3037.80639,N,09624.27724,W,185646.00,A,A*7D
$GPRMC,185647.00,A,3037.80610,N,09624.27753,W,1.366,223.90,121023,,,A*7B
$GPVTG,223.90,T,,M,1.366,N,2.530,K,A*31
$GPGGA,185647.00,3037.80610,N,09624.27753,W,1,10,0.88,99.6,M,-24.7,M,,*59
$GPGSA,A,3,28,32,10,31,21,02,25,23,26,12,,,1.51,0.88,1.23*0F
$GPGSV,4,1,14,01,28,307,27,02,34,290,36,03,01,313,,10,51,112,26*78
$GPGSV,4,2,14,12,07,047,16,21,39,277,35,23,15,126,29,25,26,080,30*74
$GPGSV,4,3,14,26,11,175,25,28,83,202,29,31,52,212,37,32,54,025,31*74
$GPGSV,4,4,14,46,40,232,36,48,43,227,34*77
$GPGLL,3037.80610,N,09624.27753,W,185647.00,A,A*77
$GPRMC,185648.00,A,3037.80582,N,09624.27781,W,1.350,221.69,121023,,,A*72
$GPVTG,221.69,T,,M,1.350,N,2.500,K,A*33
$GPGGA,185648.00,3037.80582,N,09624.27781,W,1,10,0.88,99.5,M,-24.7,M,,*52
$GPGSA,A,3,28,32,10,31,21,02,25,23,26,12,,,1.51,0.88,1.23*0F
$GPGSV,4,1,14,01,28,307,32,02,34,290,36,03,01,313,,10,51,112,29*73
$GPGSV,4,2,14,12,07,047,17,21,39,277,37,23,15,126,33,25,26,080,30*7C
$GPGSV,4,3,14,26,11,175,24,28,83,202,28,31,52,212,38,32,54,025,31*7B
$GPGSV,4,4,14,46,40,232,34,48,43,227,34*75
$GPGLL,3037.80582,N,09624.27781,W,185648.00,A,A*7F
$GPRMC,185649.00,A,3037.80560,N,09624.27812,W,1.280,227.26,121023,,,A*7B
$GPVTG,227.26,T,,M,1.280,N,2.371,K,A*32
$GPGGA,185649.00,3037.80560,N,09624.27812,W,1,10,0.88,99.6,M,-24.7,M,,*59
$GPGSA,A,3,28,32,10,31,21,02,25,23,26,12,,,1.51,0.88,1.23*0F
$GPGSV,4,1,14,01,28,307,32,02,34,290,36,03,01,313,,10,51,112,30*7B
$GPGSV,4,2,14,12,07,047,16,21,39,277,39,23,15,126,33,25,26,080,29*7B
$GPGSV,4,3,14,26,11,175,24,28,83,202,28,31,52,212,38,32,54,025,31*7B
$GPGSV,4,4,14,46,40,232,36,48,43,227,34*77
$GPGLL,3037.80560,N,09624.27812,W,185649.00,A,A*77
$GPRMC,185650.00,A,3037.80537,N,09624.27839,W,1.256,223.62,121023,,,A*77
$GPVTG,223.62,T,,M,1.256,N,2.326,K,A*3F
$GPGGA,185650.00,3037.80537,N,09624.27839,W,1,10,0.88,99.7,M,-24.7,M,,*5B
$GPGSA,A,3,28,32,10,31,21,02,25,23,26,12,,,1.51,0.88,1.23*0F
$GPGSV,4,1,14,01,28,307,25,02,34,290,36,03,01,313,,10,51,112,28*74
$GPGSV,4,2,14,12,07,047,14,21,39,277,38,23,15,126,30,25,26,080,29*7B
$GPGSV,4,3,14,26,11,175,24,28,83,203,27,31,52,212,37,32,54,025,30*7B
$GPGSV,4,4,14,46,40,232,35,48,43,227,34*74
$GPGLL,3037.80537,N,09624.27839,W,185650.00,A,A*74
$GPRMC,185651.00,A,3037.80507,N,09624.27865,W,1.352,220.24,121023,,,A*78
$GPVTG,220.24,T,,M,1.352,N,2.503,K,A*3A
$GPGGA,185651.00,3037.80507,N,09624.27865,W,1,10,0.88,99.7,M,-24.7,M,,*50
$GPGSA,A,3,28,32,10,31,21,02,25,23,26,12,,,1.51,0.88,1.23*0F
$GPGSV,4,1,14,01,28,307,31,02,34,290,36,03,01,313,,10,51,112,30*78
$GPGSV,4,2,14,12,07,047,11,21,39,277,36,23,15,126,31,25,26,080,29*71
$GPGSV,4,3,14,26,11,175,25,28,83,203,26,31,52,212,36,32,54,025,30*7A
$GPGSV,4,4,14,46,40,232,30,48,43,227,32*77
$GPGLL,3037.80507,N,09624.27865,W,185651.00,A,A*7F
$GPRMC,185652.00,A,3037.80481,N,09624.27899,W,1.504,225.02,121023,,,A*73
$GPVTG,225.02,T,,M,1.504,N,2.785,K,A*32
$GPGGA,185652.00,3037.80481,N,09624.27899,W,1,10,0.88,99.7,M,-24.7,M,,*5F
$GPGSA,A,3,28,32,10,31,21,02,25,23,26,12,,,1.51,0.88,1.23*0F
$GPGSV,4,1,14,01,28,307,30,02,34,290,38,03,01,313,,10,51,112,30*77
$GPGSV,4,2,14,12,07,047,12,21,39,277,38,23,15,126,31,25,26,080,29*7C
$GPGSV,4,3,14,26,11,175,25,28,83,203,26,31,52,212,36,32,54,025,29*72
$GPGSV,4,4,14,46,40,232,35,48,43,227,35*75
$GPGLL,3037.80481,N,09624.27899,W,185652.00,A,A*70
$GPRMC,185653.00,A,3037.80459,N,09624.27927,W,1.120,221.84,121023,,,A*7B
$GPVTG,221.84,T,,M,1.120,N,2.074,K,A*33
$GPGGA,185653.00,3037.80459,N,09624.27927,W,1,10,0.88,99.8,M,-24.7,M,,*50
$GPGSA,A,3,28,32,10,31,21,02,25,23,26,12,,,1.51,0.88,1.23*0F
$GPGSV,4,1,14,01,28,307,29,02,34,290,37,03,01,313,,10,51,112,29*78
$GPGSV,4,2,14,12,07,047,15,21,39,277,39,23,15,126,30,25,26,080,29*7B
$GPGSV,4,3,14,26,11,175,24,28,83,203,28,31,53,212,38,32,54,025,29*72
$GPGSV,4,4,14,46,40,232,36,48,43,227,35*76
$GPGLL,3037.80459,N,09624.27927,W,185653.00,A,A*70
$GPRMC,185654.00,A,3037.80429,N,09624.27949,W,1.347,214.55,121023,,,A*7A
$GPVTG,214.55,T,,M,1.347,N,2.495,K,A*31
$GPGGA,185654.00,3037.80429,N,09624.27949,W,1,10,0.88,99.8,M,-24.7,M,,*58
$GPGSA,A,3,28,32,10,31,21,02,25,23,26,12,,,1.51,0.88,1.23*0F
$GPGSV,4,1,14,01,28,307,30,02,34,290,34,03,01,313,,10,51,112,28*72
$GPGSV,4,2,14,12,07,047,17,21,39,277,37,23,15,126,29,25,26,080,29*7F
$GPGSV,4,3,14,26,11,175,21,28,83,203,27,31,53,212,37,32,54,026,29*74
$GPGSV,4,4,14,46,40,232,36,48,43,227,35*76
$GPGLL,3037.80429,N,09624.27949,W,185654.00,A,A*78
$GPRMC,185655.00,A,3037.80405,N,09624.27979,W,1.369,219.89,121023,,,A*76
$GPVTG,219.89,T,,M,1.369,N,2.535,K,A*3A
$GPGGA,185655.00,3037.80405,N,09624.27979,W,1,10,0.88,99.7,M,-24.7,M,,*5B
$GPGSA,A,3,28,32,10,31,21,02,25,23,26,12,,,1.51,0.88,1.23*0F
$GPGSV,4,1,14,01,28,307,30,02,34,290,37,03,01,313,,10,51,112,29*70
$GPGSV,4,2,14,12,07,047,19,21,39,277,37,23,15,126,28,25,26,080,30*78
$GPGSV,4,3,14,26,11,175,20,28,83,203,28,31,53,212,35,32,54,026,28*79
$GPGSV,4,4,14,46,40,232,36,48,43,227,35*76
$GPGLL,3037.80405,N,09624.27979,W,185655.00,A,A*74
$GPRMC,185656.00,A,3037.80383,N,09624.28003,W,1.046,219.94,121023,,,A*75
$GPVTG,219.94,T,,M,1.046,N,1.937,K,A*35
$GPGGA,185656.00,3037.80383,N,09624.28003,W,1,10,0.88,100.0,M,-24.7,M,,*6C
$GPGSA,A,3,28,32,10,31,21,02,25,23,26,12,,,1.51,0.88,1.23*0F
$GPGSV,4,1,14,01,28,307,34,02,34,290,39,03,01,313,,10,51,112,30*72
$GPGSV,4,2,14,12,07,047,20,21,39,277,36,23,15,126,28,25,26,080,28*7A
$GPGSV,4,3,14,26,11,175,17,28,83,203,32,31,53,212,38,32,54,026,33*71
$GPGSV,4,4,14,46,40,232,36,48,43,227,37*74
$GPGLL,3037.80383,N,09624.28003,W,185656.00,A,A*75
$GPRMC,185657.00,A,3037.80368,N,09624.28025,W,0.898,225.77,121023,,,A*7D
$GPVTG,225.77,T,,M,0.898,N,1.663,K,A*33
$GPGGA,185657.00,3037.80368,N,09624.28025,W,1,10,0.88,100.1,M,-24.7,M,,*6D
$GPGSA,A,3,28,32,10,31,21,02,25,23,26,12,,,1.51,0.88,1.23*0F
$GPGSV,4,1,14,01,28,307,27,02,34,290,40,03,01,313,,10,51,112,29*76
$GPGSV,4,2,14,12,07,047,18,21,39,277,33,23,15,126,27,25,26,080,19*79
$GPGSV,4,3,14,26,11,175,20,28,83,203,32,31,53,212,37,32,54,026,33*7A
$GPGSV,4,4,14,46,40,232,33,48,43,227,33*75
$GPGLL,3037.80368,N,09624.28025,W,185657.00,A,A*75
$GPRMC,185658.00,A,3037.80347,N,09624.28047,W,1.119,219.36,121023,,,A*70
$GPVTG,219.36,T,,M,1.119,N,2.073,K,A*3C
$GPGGA,185658.00,3037.80347,N,09624.28047,W,1,10,0.88,99.9,M,-24.7,M,,*52
$GPGSA,A,3,28,32,10,31,21,02,25,23,26,12,,,1.51,0.88,1.23*0F
$GPGSV,4,1,14,01,28,307,32,02,34,290,38,03,01,313,,10,51,112,29*7D
$GPGSV,4,2,14,12,07,047,18,21,39,277,39,23,15,126,29,25,26,080,30*76
$GPGSV,4,3,14,26,11,175,20,28,83,203,28,31,53,212,37,32,54,026,33*71
$GPGSV,4,4,14,46,40,232,34,48,43,227,34*75
$GPGLL,3037.80347,N,09624.28047,W,185658.00,A,A*73
$GPRMC,185659.00,A,3037.80322,N,09624.28072,W,1.343,222.49,121023,,,A*79
$GPVTG,222.49,T,,M,1.343,N,2.488,K,A*31
$GPGGA,185659.00,3037.80322,N,09624.28072,W,1,10,0.88,99.9,M,-24.7,M,,*56
$GPGSA,A,3,28,32,10,31,21,02,25,23,26,12,,,1.51,0.88,1.23*0F
$GPGSV,4,1,14,01,28,307,35,02,34,290,36,03,01,313,,10,51,112,29*74
$GPGSV,4,2,14,12,07,047,18,21,39,277,37,23,15,126,30,25,26,080,30*70
$GPGSV,4,3,14,26,11,175,22,28,83,203,28,31,53,212,39,32,54,026,35*7B
$GPGSV,4,4,14,46,40,232,34,48,43,227,31*70
$GPGLL,3037.80322,N,09624.28072,W,185659.00,A,A*77
$GPRMC,185700.00,A,3037.80296,N,09624.28107,W,1.387,227.45,121023,,,A*78
$GPVTG,227.45,T,,M,1.387,N,2.569,K,A*3E
$GPGGA,185700.00,3037.80296,N,09624.28107,W,1,10,0.88,99.7,M,-24.7,M,,*58
$GPGSA,A,3,28,32,10,31,21,02,25,23,26,12,,,1.51,0.88,1.23*0F
$GPGSV,4,1,14,01,28,307,31,02,34,290,35,03,01,313,,10,51,112,28*72
$GPGSV,4,2,14,12,07,047,19,21,39,277,37,23,15,126,29,25,26,080,30*79
$GPGSV,4,3,14,26,11,175,23,28,83,203,32,31,53,212,38,32,54,026,33*76
$GPGSV,4,4,14,46,40,232,31,48,43,227,35*71
$GPGLL,3037.80296,N,09624.28107,W,185700.00,A,A*77
$GPRMC,185701.00,A,3037.80270,N,09624.28142,W,1.401,226.37,121023,,,A*7D
$GPVTG,226.37,T,,M,1.401,N,2.595,K,A*30
$GPGGA,185701.00,3037.80270,N,09624.28142,W,1,10,0.88,99.5,M,-24.7,M,,*52
$GPGSA,A,3,28,32,10,31,21,02,25,23,26,12,,,1.51,0.88,1.23*0F
$GPGSV,4,1,14,01,28,307,32,02,34,290,31,03,01,313,,10,51,112,28*75
$GPGSV,4,2,14,12,07,047,19,21,39,277,35,23,15,126,29,25,26,080,29*73
$GPGSV,4,3,14,26,11,175,25,28,83,203,35,31,53,212,38,32,54,026,36*72
$GPGSV,4,4,14,46,40,232,33,48,43,227,33*75
$GPGLL,3037.80270,N,09624.28142,W,185701.00,A,A*7F
$GPRMC,185702.00,A,3037.80242,N,09624.28174,W,1.427,228.97,121023,,,A*7A
$GPVTG,228.97,T,,M,1.427,N,2.643,K,A*38
$GPGGA,185702.00,3037.80242,N,09624.28174,W,1,10,0.88,99.6,M,-24.7,M,,*56
$GPGSA,A,3,28,32,10,31,21,02,25,23,26,12,,,1.51,0.88,1.23*0F
$GPGSV,4,1,14,01,28,307,31,02,34,290,34,03,01,313,,10,51,112,26*7D
$GPGSV,4,2,14,12,07,047,17,21,39,277,33,23,15,126,29,25,26,080,29*7B
$GPGSV,4,3,14,26,11,175,24,28,83,203,31,31,53,212,38,32,54,026,34*75
$GPGSV,4,4,14,46,40,232,37,48,43,227,33*71
$GPGLL,3037.80242,N,09624.28174,W,185702.00,A,A*78
$GPRMC,185703.00,A,3037.80213,N,09624.28198,W,1.444,222.19,121023,,,A*74
$GPVTG,222.19,T,,M,1.444,N,2.675,K,A*34
$GPGGA,185703.00,3037.80213,N,09624.28198,W,1,10,0.88,99.8,M,-24.7,M,,*5F
$GPGSA,A,3,28,32,10,31,21,02,25,23,26,12,,,1.51,0.88,1.23*0F
$GPGSV,4,1,14,01,28,307,26,02,34,290,34,03,01,313,,10,51,112,24*79
$GPGSV,4,2,14,12,07,047,17,21,39,277,36,23,15,126,29,25,26,080,29*7E
$GPGSV,4,3,14,26,11,175,24,28,83,203,31,31,53,212,35,32,54,026,32*7E
$GPGSV,4,4,14,46,40,232,37,48,43,227,36*74
$GPGLL,3037.80213,N,09624.28198,W,185703.00,A,A*7F
$GPRMC,185704.00,A,3037.80178,N,09624.28225,W,1.553,219.18,121023,,,A*76
$GPVTG,219.18,T,,M,1.553,N,2.877,K,A*36
$GPGGA,185704.00,3037.80178,N,09624.28225,W,1,10,0.88,99.9,M,-24.7,M,,*52
$GPGSA,A,3,28,32,10,31,21,02,25,23,26,12,,,1.51,0.88,1.23*0F
$GPGSV,4,1,14,01,28,307,31,02,34,290,34,03,01,313,,10,51,112,24*7F
$GPGSV,4,2,14,12,07,047,19,21,39,277,37,23,15,126,29,25,26,080,29*71
$GPGSV,4,3,14,26,11,175,23,28,83,203,31,31,53,212,38,32,54,026,34*72
$GPGSV,4,4,14,46,40,232,36,48,43,227,33*70
$GPGLL,3037.80178,N,09624.28225,W,185704.00,A,A*73
$GPRMC,185705.00,A,3037.80149,N,09624.28252,W,1.340,220.93,121023,,,A*78
$GPVTG,220.93,T,,M,1.340,N,2.482,K,A*3D
$GPGGA,185705.00,3037.80149,N,09624.28252,W,1,10,0.88,99.8,M,-24.7,M,,*50
$GPGSA,A,3,28,32,10,31,21,02,25,23,26,12,,,1.51,0.88,1.23*0F
$GPGSV,4,1,14,01,28,307,32,02,34,290,39,03,01,313,,10,51,112,23*76
$GPGSV,4,2,14,12,07,047,20,21,39,277,37,23,15,126,28,25,26,080,30*72
$GPGSV,4,3,14,26,11,175,26,28,83,203,30,31,53,212,36,32,54,026,31*7D
$GPGSV,4,4,14,46,40,232,34,48,43,227,33*72
$GPGLL,3037.80149,N,09624.28252,W,185705.00,A,A*70
$GPRMC,185706.00,A,3037.80121,N,09624.28288,W,1.735,226.20,121023,,,A*7A
$GPVTG,226.20,T,,M,1.735,N,3.212,K,A*3B
$GPGGA,185706.00,3037.80121,N,09624.28288,W,1,10,0.88,99.9,M,-24.7,M,,*5B
$GPGSA,A,3,28,32,10,31,21,02,25,23,26,12,,,1.51,0.88,1.23*0F
$GPGSV,4,1,14,01,28,307,32,02,34,290,39,03,01,313,,10,51,112,22*77
$GPGSV,4,2,14,12,07,047,18,21,39,277,35,23,15,126,28,25,26,080,29*73
$GPGSV,4,3,14,26,11,175,26,28,83,203,28,31,53,212,35,32,54,026,31*77
$GPGSV,4,4,14,46,40,232,33,48,43,227,32*74
$GPGLL,3037.80121,N,09624.28288,W,185706.00,A,A*7A
$GPRMC,185707.00,A,3037.80095,N,09624.28318,W,1.390,225.09,121023,,,A*7E
$GPVTG,225.09,T,,M,1.390,N,2.574,K,A*3E
$GPGGA,185707.00,3037.80095,N,09624.28318,W,1,10,0.88,100.1,M,-24.7,M,,*65
$GPGSA,A,3,28,32,10,31,21,02,25,23,26,12,,,1.51,0.88,1.23*0F
$GPGSV,4,1,14,01,28,307,27,02,34,290,38,03,01,313,,10,51,112,23*73
$GPGSV,4,2,14,12,07,047,17,21,39,277,33,23,15,126,30,25,26,080,28*72
$GPGSV,4,3,14,26,11,175,26,28,83,203,32,31,53,212,37,32,54,026,35*7A
$GPGSV,4,4,14,46,40,232,33,48,43,227,33*75
$GPGLL,3037.80095,N,09624.28318,W,185707.00,A,A*7D
$GPRMC,185708.00,A,3037.80065,N,09624.28346,W,1.362,223.91,121023,,,A*7F
$GPVTG,223.91,T,,M,1.362,N,2.523,K,A*36
$GPGGA,185708.00,3037.80065,N,09624.28346,W,1,10,0.88,100.3,M,-24.7,M,,*6C
$GPGSA,A,3,28,32,10,31,21,02,25,23,26,12,,,1.51,0.88,1.23*0F
$GPGSV,4,1,14,01,28,307,35,02,34,290,36,03,01,313,,10,51,112,25*78
$GPGSV,4,2,14,12,07,047,17,21,39,277,33,23,15,126,30,25,26,080,31*7A
$GPGSV,4,3,14,26,11,175,28,28,83,203,30,31,53,212,37,32,54,026,32*71
$GPGSV,4,4,14,46,40,232,33,48,43,227,33*75
$GPGLL,3037.80065,N,09624.28346,W,185708.00,A,A*76
$GPRMC,185709.00,A,3037.80035,N,09624.28377,W,1.368,222.80,121023,,,A*72
$GPVTG,222.80,T,,M,1.368,N,2.534,K,A*3B
$GPGGA,185709.00,3037.80035,N,09624.28377,W,1,10,0.88,100.3,M,-24.7,M,,*6A
$GPGSA,A,3,28,32,10,31,21,02,25,23,26,12,,,1.51,0.88,1.23*0F
$GPGSV,4,1,14,01,28,307,36,02,34,289,30,03,01,313,,10,51,112,24*74
$GPGSV,4,2,14,12,07,047,18,21,39,277,34,23,15,126,30,25,26,080,31*72
$GPGSV,4,3,14,26,11,175,28,28,83,203,27,31,53,212,37,32,54,026,31*74
$GPGSV,4,4,14,46,40,232,32,48,43,227,33*74
$GPGLL,3037.80035,N,09624.28377,W,185709.00,A,A*70
$GPRMC,185710.00,A,3037.80008,N,09624.28410,W,1.562,225.89,121023,,,A*70
$GPVTG,225.89,T,,M,1.562,N,2.893,K,A*39
$GPGGA,185710.00,3037.80008,N,09624.28410,W,1,10,0.88,100.3,M,-24.7,M,,*6A
$GPGSA,A,3,28,32,10,31,21,02,25,23,26,12,,,1.51,0.88,1.23*0F
$GPGSV,4,1,14,01,28,307,29,02,34,289,26,03,01,313,,10,51,112,30*78
$GPGSV,4,2,14,12,07,047,17,21,39,277,40,23,15,126,32,25,26,080,24*78
$GPGSV,4,3,14,26,11,175,28,28,83,203,28,31,53,212,35,32,54,026,29*70
$GPGSV,4,4,14,46,40,232,34,48,43,227,32*73
$GPGLL,3037.80008,N,09624.28410,W,185710.00,A,A*70
$GPRMC,185711.00,A,3037.79984,N,09624.28442,W,1.300,225.03,121023,,,A*7D
$GPVTG,225.03,T,,M,1.300,N,2.407,K,A*38
$GPGGA,185711.00,3037.79984,N,09624.28442,W,1,10,0.88,100.4,M,-24.7,M,,*60
$GPGSA,A,3,28,32,10,31,21,02,25,23,26,12,,,1.51,0.88,1.23*0F
$GPGSV,4,1,14,01,28,307,34,02,34,289,31,03,01,313,,10,51,112,33*71
$GPGSV,4,2,14,12,07,047,17,21,39,277,41,23,15,126,35,25,26,080,29*73
$GPGSV,4,3,14,26,11,175,28,28,83,203,28,31,53,212,37,32,54,026,30*7A
$GPGSV,4,4,14,46,40,232,37,48,43,227,36*74
$GPGLL,3037.79984,N,09624.28442,W,185711.00,A,A*7D
$GPRMC,185712.00,A,3037.79955,N,09624.28477,W,1.672,224.66,121023,,,A*76
$GPVTG,224.66,T,,M,1.672,N,3.097,K,A*36
$GPGGA,185712.00,3037.79955,N,09624.28477,W,1,10,0.88,100.4,M,-24.7,M,,*69
$GPGSA,A,3,28,32,10,31,21,02,25,23,26,12,,,1.51,0.88,1.23*0F
$GPGSV,4,1,14,01,28,307,31,02,34,289,37,03,01,313,,10,51,112,30*71
$GPGSV,4,2,14,12,07,047,17,21,39,277,36,23,15,126,28,25,26,080,29*7F
$GPGSV,4,3,14,26,11,175,27,28,83,203,28,31,53,212,38,32,54,026,29*72
$GPGSV,4,4,14,46,40,232,35,48,43,227,35*75
$GPGLL,3037.79955,N,09624.28477,W,185712.00,A,A*74
$GPRMC,185713.00,A,3037.79925,N,09624.28507,W,1.350,220.73,121023,,,A*73
$GPVTG,220.73,T,,M,1.350,N,2.500,K,A*39
$GPGGA,185713.00,3037.79925,N,09624.28507,W,1,10,0.88,100.6,M,-24.7,M,,*6B
$GPGSA,A,3,28,32,10,31,21,02,25,23,26,12,,,1.51,0.88,1.23*0F
$GPGSV,4,1,14,01,28,307,32,02,34,289,35,03,01,313,,10,51,112,28*79
$GPGSV,4,2,14,12,07,047,17,21,39,277,34,23,15,126,30,25,26,080,29*74
$GPGSV,4,3,14,26,11,175,25,28,83,203,27,31,53,212,36,32,54,026,29*71
$GPGSV,4,4,14,46,40,232,34,48,43,227,35*74
$GPGLL,3037.79925,N,09624.28507,W,185713.00,A,A*74
$GPRMC,185714.00,A,3037.79897,N,09624.28533,W,1.246,218.85,121023,,,A*7F
$GPVTG,218.85,T,,M,1.246,N,2.307,K,A*3C
$GPGGA,185714.00,3037.79897,N,09624.28533,W,1,10,0.88,100.6,M,-24.7,M,,*63
$GPGSA,A,3,28,32,10,31,21,02,25,23,26,12,,,1.51,0.88,1.23*0F
$GPGSV,4,1,14,01,28,307,32,02,34,289,33,03,01,313,,10,51,112,33*75
$GPGSV,4,2,14,12,07,047,18,21,39,277,36,23,15,126,31,25,26,080,28*79
$GPGSV,4,3,14,26,11,175,24,28,83,203,27,31,53,212,36,32,54,026,29*70
$GPGSV,4,4,14,46,40,232,35,48,43,227,35*75
$GPGLL,3037.79897,N,09624.28533,W,185714.00,A,A*7C
$GPRMC,185715.00,A,3037.79874,N,09624.28566,W,1.413,224.54,121023,,,A*76
$GPVTG,224.54,T,,M,1.413,N,2.618,K,A*32
$GPGGA,185715.00,3037.79874,N,09624.28566,W,1,10,0.88,100.6,M,-24.7,M,,*6F
$GPGSA,A,3,28,32,10,31,21,02,25,23,26,12,,,1.51,0.88,1.23*0F
$GPGSV,4,1,14,01,28,307,35,02,34,289,36,03,01,313,,10,51,112,28*7D
$GPGSV,4,2,14,12,07,047,19,21,39,277,36,23,15,126,29,25,26,080,29*70
$GPGSV,4,3,14,26,11,175,27,28,83,203,28,31,53,212,36,32,54,026,33*77
$GPGSV,4,4,14,46,40,232,32,48,43,227,32*75
$GPGLL,3037.79874,N,09624.28566,W,185715.00,A,A*70
$GPRMC,185716.00,A,3037.79848,N,09624.28599,W,1.322,227.43,121023,,,A*7A
$GPVTG,227.43,T,,M,1.322,N,2.448,K,A*35
$GPGGA,185716.00,3037.79848,N,09624.28599,W,1,10,0.88,100.7,M,-24.7,M,,*62
$GPGSA,A,3,28,32,10,31,21,02,25,23,26,12,,,1.51,0.88,1.23*0F
$GPGSV,4,1,14,01,28,307,31,02,34,289,35,03,01,313,,10,51,112,27*75
$GPGSV,4,2,14,12,07,047,19,21,39,277,36,23,15,126,29,25,26,080,29*70
$GPGSV,4,3,14,26,11,175,27,28,83,203,28,31,53,212,36,32,54,026,32*76
$GPGSV,4,4,14,46,40,232,34,48,43,227,36*77
$GPGLL,3037.79848,N,09624.28599,W,185716.00,A,A*7C
$GPRMC,185717.00,A,3037.79825,N,09624.28628,W,1.329,228.27,121023,,,A*7F
$GPVTG,228.27,T,,M,1.329,N,2.461,K,A*38
$GPGGA,185717.00,3037.79825,N,09624.28628,W,1,10,0.88,100.7,M,-24.7,M,,*61
$GPGSA,A,3,28,32,10,31,21,02,25,23,26,12,,,1.51,0.88,1.23*0F
$GPGSV,4,1,14,01,28,307,34,02,34,289,37,03,01,313,,10,51,113,28*7C
$GPGSV,4,2,14,12,07,047,20,21,39,277,36,23,15,126,30,25,26,080,31*7B
$GPGSV,4,3,14,26,11,175,25,28,83,203,28,31,53,212,35,32,54,026,30*75
$GPGSV,4,4,14,46,40,232,34,48,43,227,35*74
$GPGLL,3037.79825,N,09624.28628,W,185717.00,A,A*7F
$GPRMC,185718.00,A,3037.79801,N,09624.28658,W,1.408,228.28,121023,,,A*7A
$GPVTG,228.28,T,,M,1.408,N,2.607,K,A*31
$GPGGA,185718.00,3037.79801,N,09624.28658,W,1,10,0.88,100.7,M,-24.7,M,,*6F
$GPGSA,A,3,28,32,10,31,21,02,25,23,26,12,,,1.51,0.88,1.23*0F
$GPGSV,4,1,14,01,28,307,34,02,34,289,37,03,01,313,,10,51,113,32*77
$GPGSV,4,2,14,12,07,047,18,21,39,277,35,23,15,126,30,25,26,080,30*72
$GPGSV,4,3,14,26,11,175,26,28,83,203,28,31,53,212,36,32,54,026,30*75
$GPGSV,4,4,14,46,40,232,32,48,43,227,32*75
$GPGLL,3037.79801,N,09624.28658,W,185718.00,A,A*71
$GPRMC,185719.00,A,3037.79774,N,09624.28690,W,1.368,224.89,121023,,,A*74
$GPVTG,224.89,T,,M,1.368,N,2.533,K,A*33
$GPGGA,185719.00,3037.79774,N,09624.28690,W,1,10,0.88,100.7,M,-24.7,M,,*67
$GPGSA,A,3,28,32,10,31,21,02,25,23,26,12,,,1.51,0.88,1.23*0F
$GPGSV,4,1,14,01,28,307,33,02,34,289,35,03,01,313,,10,51,113,28*79
$GPGSV,4,2,14,12,06,046,16,21,39,277,37,23,15,126,30,25,26,080,30*7E
$GPGSV,4,3,14,26,11,175,26,28,83,203,28,31,53,212,36,32,54,026,30*75
$GPGSV,4,4,14,46,40,232,35,48,43,227,32*72
$GPGLL,3037.79774,N,09624.28690,W,185719.00,A,A*79
$GPRMC,185720.00,A,3037.79740,N,09624.28713,W,1.372,217.02,121023,,,A*7B
$GPVTG,217.02,T,,M,1.372,N,2.541,K,A*3E
$GPGGA,185720.00,3037.79740,N,09624.28713,W,1,10,0.88,100.7,M,-24.7,M,,*60
$GPGSA,A,3,28,32,10,31,21,02,25,23,26,12,,,1.51,0.88,1.23*0F
$GPGSV,4,1,14,01,28,307,37,02,34,289,34,03,01,313,,10,51,113,29*7D
$GPGSV,4,2,14,12,06,046,16,21,39,277,35,23,15,126,31,25,26,080,30*7D
