$GPRMC,185531.00,A,3037.82641,N,09624.25630,W,0.010,,121023,,,A*6E
$GPVTG,,T,,M,0.010,N,0.019,K,A*2A
$GPGGA,185531.00,3037.82641,N,09624.25630,W,1,10,0.87,94.2,M,-24.7,M,,*5D
$GPGSV,4,2,14,12,07,047,18,21,39,278,33,23,16,126,32,25,26,081,30*7B
$GPGSV,4,3,14,26,11,175,20,28,83,202,29,31,52,212,37,32,54,025,31*71
$GPGSV,4,4,14,46,40,232,35,48,43,227,36*76
$GPGLL,3037.82147,N,09624.26075,W,185550.00,A,A*77
$GPRMC,185551.00,A,3037.82114,N,09624.26109,W,1.586,220.68,121023,,,A*7A
$GPVTG,220.68,T,,M,1.586,N,2.938,K,A*39
$GPRMC,185531.00,A,3037.82641,N,09624.25630,W,0.010,,121023,,,A*6E
#^^^^^^^^^^^^^^^^^^^^ INIT DATA ^^^^^^^^^^^^^^^^^^^^^^
$GPGSA,A,3,28,32,10,31,21,02,25,23,26,12,,,1.51,0.88,1.23*0F
$GPGSV,4,1,14,01,27,308,29,02,34,290,36,03,00,313,,10,52,111,36*76
$GPGSV,4,2,14,12,07,047,19,21,39,278,39,23,16,126,30,25,26,081,32*70
$GPGSV,4,3,14,26,11,175,24,28,83,202,33,31,52,212,36,32,54,025,35*7B
$GPGSV,4,4,14,46,40,232,35,48,43,227,36*76
$GPGLL,3037.82453,N,09624.25777,W,185541.00,A,A*71
$GPRMC,185542.00,A,3037.82411,N,09624.25809,W,1.892,216.86,121023,,,A*7F
$GPVTG,216.86,T,,M,1.892,N,3.505,K,A*37
$GPGGA,185542.00,3037.82411,N,09624.25809,W,1,10,0.88,95.4,M,-24.7,M,,*52
$GPGSA,A,3,28,32,10,31,21,02,25,23,26,12,,,1.51,0.88,1.23*0F
$GPGSV,4,1,14,01,27,308,28,02,34,290,36,03,00,313,,10,52,111,29*79
$GPGSV,4,2,14,12,07,047,19,21,39,278,38,23,16,126,34,25,26,081,32*75
$GPGSV,4,3,14,26,11,175,24,28,83,202,30,31,52,212,36,32,54,025,35*78
$GPGSV,4,4,14,46,40,232,35,48,43,227,35*75
$GPGLL,3037.82411,N,09624.25809,W,185542.00,A,A*72
$GPRMC,185543.00,A,3037.82366,N,09624.25842,W,1.968,214.01,121023,,,A*7F
$GPVTG,214.01,T,,M,1.968,N,3.644,K,A*38
$GPGGA,185543.00,3037.82366,N,09624.25842,W,1,10,0.88,95.5,M,-24.7,M,,*5A
$GPGSA,A,3,28,32,10,31,21,02,25,23,26,12,,,1.51,0.88,1.23*0F
$GPGSV,4,1,14,01,27,308,27,02,34,290,35,03,00,313,,10,52,111,29*75
$GPGSV,4,2,14,12,07,047,21,21,39,278,36,23,16,126,31,25,26,081,32*75
$GPGSV,4,3,14,26,11,175,22,28,83,202,31,31,52,212,36,32,54,025,32*78
$GPGSV,4,4,14,46,40,232,34,48,43,227,36*77
$GPGLL,3037.82366,N,09624.25842,W,185543.00,A,A*7B
$GPRMC,185544.00,A,3037.82326,N,09624.25884,W,1.995,217.63,121023,,,A*73
$GPVTG,217.63,T,,M,1.995,N,3.694,K,A*30
$GPGGA,185544.00,3037.82326,N,09624.25884,W,1,10,0.88,95.5,M,-24.7,M,,*53
$GPGSA,A,3,28,32,10,31,21,02,25,23,26,12,,,1.51,0.88,1.23*0F
$GPGSV,4,1,14,01,27,308,28,02,34,290,35,03,00,313,,10,52,111,33*71
$GPGSV,4,2,14,12,07,047,22,21,39,278,38,23,16,126,32,25,26,081,28*70
$GPGSV,4,3,14,26,11,175,21,28,83,202,32,31,52,212,38,32,54,025,32*76
$GPGSV,4,4,14,46,40,232,39,48,43,227,38*74
$GPGLL,3037.82326,N,09624.25884,W,185544.00,A,A*72
$GPRMC,185545.00,A,3037.82293,N,09624.25921,W,1.687,219.87,121023,,,A*7B
$GPVTG,219.87,T,,M,1.687,N,3.124,K,A*34
$GPGGA,185545.00,3037.82293,N,09624.25921,W,1,10,0.88,95.5,M,-24.7,M,,*53
$GPGSA,A,3,28,32,10,31,21,02,25,23,26,12,,,1.51,0.88,1.23*0F
$GPGSV,4,1,14,01,27,308,28,02,34,290,35,03,00,313,,10,52,111,30*72
$GPGSV,4,2,14,12,07,047,22,21,39,278,38,23,16,126,32,25,26,081,31*78
$GPGSV,4,3,14,26,11,175,20,28,83,202,32,31,52,212,36,32,54,025,31*7A
$GPGSV,4,4,14,46,40,232,39,48,43,227,36*7A
$GPGLL,3037.82293,N,09624.25921,W,185545.00,A,A*72
$GPRMC,185546.00,A,3037.82267,N,09624.25951,W,1.410,219.70,121023,,,A*70
$GPVTG,219.70,T,,M,1.410,N,2.611,K,A*30
$GPGGA,185546.00,3037.82267,N,09624.25951,W,1,10,0.88,95.4,M,-24.7,M,,*5D
$GPGSA,A,3,28,32,10,31,21,02,25,23,26,12,,,1.51,0.88,1.23*0F
$GPGSV,4,1,14,01,27,308,29,02,34,290,37,03,00,313,,10,52,111,29*79
$GPGSV,4,2,14,12,07,047,20,21,39,278,36,23,16,126,31,25,26,081,29*7E
$GPGSV,4,3,14,26,11,175,21,28,83,202,32,31,52,212,36,32,54,025,32*78
$GPGSV,4,4,14,46,40,232,38,48,43,227,35*78
$GPGLL,3037.82267,N,09624.25951,W,185546.00,A,A*7D
$GPRMC,185547.00,A,3037.82241,N,09624.25979,W,1.426,219.95,121023,,,A*71
$GPVTG,219.95,T,,M,1.426,N,2.642,K,A*38
$GPGGA,185547.00,3037.82241,N,09624.25979,W,1,10,0.88,95.4,M,-24.7,M,,*52
$GPGSA,A,3,28,32,10,31,21,02,25,23,26,12,,,1.51,0.88,1.23*0F
$GPGSV,4,1,14,01,27,308,33,02,34,290,31,03,00,313,,10,52,112,28*76
$GPGSV,4,2,14,12,07,047,20,21,39,278,34,23,16,126,31,25,26,081,29*7C
$GPGSV,4,3,14,26,11,175,21,28,83,202,32,31,52,212,37,32,54,025,32*79
$GPGSV,4,4,14,46,40,232,37,48,43,227,31*73
$GPGLL,3037.82241,N,09624.25979,W,185547.00,A,A*72
$GPRMC,185548.00,A,3037.82210,N,09624.26014,W,1.598,220.99,121023,,,A*79
$GPVTG,220.99,T,,M,1.598,N,2.960,K,A*35
$GPGGA,185548.00,3037.82210,N,09624.26014,W,1,10,0.88,95.4,M,-24.7,M,,*58
$GPGSA,A,3,28,32,10,31,21,02,25,23,26,12,,,1.51,0.88,1.23*0F
$GPGSV,4,1,14,01,27,308,28,02,34,290,31,03,00,313,,10,52,112,27*73
$GPGSV,4,2,14,12,07,047,19,21,39,278,35,23,16,126,32,25,26,081,28*75
$GPGSV,4,3,14,26,11,175,22,28,83,202,31,31,52,212,37,32,54,025,32*79
$GPGSV,4,4,14,46,40,232,34,48,43,227,37*76
$GPGLL,3037.82210,N,09624.26014,W,185548.00,A,A*78
$GPRMC,185549.00,A,3037.82179,N,09624.26046,W,1.459,222.89,121023,,,A*7C
$GPVTG,222.89,T,,M,1.459,N,2.701,K,A*33
$GPGGA,185549.00,3037.82179,N,09624.26046,W,1,10,0.88,95.5,M,-24.7,M,,*53
$GPGSA,A,3,28,32,10,31,21,02,25,23,26,12,,,1.51,0.88,1.23*0F
$GPGSV,4,1,14,01,27,308,28,02,34,290,29,03,00,313,,10,52,112,26*7B
$GPGSV,4,2,14,12,07,047,19,21,39,278,37,23,16,126,32,25,26,081,28*77
$GPGSV,4,3,14,26,11,175,22,28,83,202,31,31,52,212,36,32,54,025,32*78
$GPGSV,4,4,14,46,40,232,37,48,43,227,36*74
$GPGLL,3037.82179,N,09624.26046,W,185549.00,A,A*72
$GPRMC,185550.00,A,3037.82147,N,09624.26075,W,1.631,218.15,121023,,,A*79
$GPVTG,218.15,T,,M,1.631,N,3.021,K,A*37
$GPGGA,185550.00,3037.82147,N,09624.26075,W,1,10,0.88,95.4,M,-24.7,M,,*57
$GPGSA,A,3,28,32,10,31,21,02,25,23,26,12,,,1.51,0.88,1.23*0F
$GPGSV,4,1,14,01,27,308,28,02,34,290,31,03,00,313,,10,52,112,25*71
$GPGSV,4,2,14,12,07,047,18,21,39,278,33,23,16,126,32,25,26,081,30*7B
$GPGSV,4,3,14,26,11,175,20,28,83,202,29,31,52,212,37,32,54,025,31*71
$GPGSV,4,4,14,46,40,232,35,48,43,227,36*76
$GPGLL,3037.82147,N,09624.26075,W,185550.00,A,A*77
$GPRMC,185551.00,A,3037.82114,N,09624.26109,W,1.586,220.68,121023,,,A*7A
$GPVTG,220.68,T,,M,1.586,N,2.938,K,A*39
$GPGGA,185551.00,3037.82114,N,09624.26109,W,1,10,0.88,95.5,M,-24.7,M,,*5B
$GPGSA,A,3,28,32,10,31,21,02,25,23,26,12,,,1.51,0.88,1.23*0F
$GPGSV,4,1,14,01,27,308,29,02,34,290,30,03,00,313,,10,52,112,24*70
$GPGSV,4,2,14,12,07,047,15,21,39,278,34,23,16,126,33,25,26,081,30*70
$GPGSV,4,3,14,26,11,175,19,28,83,202,29,31,52,212,36,32,54,025,31*7A
$GPGSV,4,4,14,46,40,232,35,48,43,227,36*76
$GPGLL,3037.82114,N,09624.26109,W,185551.00,A,A*7A
$GPRMC,185552.00,A,3037.82082,N,09624.26139,W,1.560,218.81,121023,,,A*70
$GPVTG,218.81,T,,M,1.560,N,2.889,K,A*36
$GPGGA,185552.00,3037.82082,N,09624.26139,W,1,10,0.88,95.6,M,-24.7,M,,*56
$GPGSA,A,3,28,32,10,31,21,02,25,23,26,12,,,1.51,0.88,1.23*0F
$GPGSV,4,1,14,01,27,308,29,02,34,290,31,03,00,313,,10,52,112,24*71
$GPGSV,4,2,14,12,07,047,13,21,39,278,35,23,16,126,33,25,26,081,30*77
$GPGSV,4,3,14,26,11,175,19,28,83,202,28,31,52,212,39,32,54,025,31*74
$GPGSV,4,4,14,46,40,232,37,48,43,227,37*75
$GPGLL,3037.82082,N,09624.26139,W,185552.00,A,A*74
$GPGSV,4,1,14,01,27,308,32,02,34,290,33,03,00,313,,10,52,112,27*7A
$GPGSV,4,2,14,12,07,047,15,21,39,278,37,23,16,126,32,25,26,081,30*72
$GPGSV,4,3,14,26,11,175,18,28,83,202,33,31,52,212,37,32,54,025,31*71
$GPGSV,4,4,14,46,40,232,38,48,43,227,37*7A
$GPGLL,3037.82018,N,09624.26188,W,185554.00,A,A*7B
$GPRMC,185555.00,A,3037.81985,N,09624.26215,W,1.639,221.22,121023,,,A*7B
$GPVTG,221.22,T,,M,1.639,N,3.035,K,A*34
$GPGGA,185555.00,3037.81985,N,09624.26215,W,1,10,0.88,95.9,M,-24.7,M,,*5E
$GPGSA,A,3,28,32,10,31,21,02,25,23,26,12,,,1.51,0.88,1.23*0F
$GPGSV,4,1,14,01,27,308,31,02,34,290,35,03,00,313,,10,52,112,27*7F
$GPGSV,4,2,14,12,07,047,15,21,39,278,35,23,16,126,31,25,26,081,30*73
$GPGSV,4,3,14,26,11,175,19,28,83,202,28,31,52,212,38,32,54,025,30*74
$GPGSV,4,4,14,46,40,232,37,48,43,227,35*77
$GPGLL,3037.81985,N,09624.26215,W,185555.00,A,A*73
$GPRMC,185556.00,A,3037.81952,N,09624.26245,W,1.503,219.25,121023,,,A*71
$GPVTG,219.25,T,,M,1.503,N,2.784,K,A*3E
$GPGGA,185556.00,3037.81952,N,09624.26245,W,1,10,0.88,96.0,M,-24.7,M,,*58
$GPGSA,A,3,28,32,10,31,21,02,25,23,26,12,,,1.51,0.88,1.23*0F
$GPGSV,4,1,14,01,27,308,30,02,34,290,32,03,00,313,,10,52,112,26*78
$GPGSV,4,2,14,12,07,047,15,21,39,278,36,23,16,126,31,25,26,081,30*70
$GPGSV,4,3,14,26,11,175,20,28,83,202,28,31,52,212,37,32,54,025,31*70
$GPGSV,4,4,14,46,40,232,36,48,43,227,35*76
$GPGLL,3037.81952,N,09624.26245,W,185556.00,A,A*7F
$GPRMC,185557.00,A,3037.81922,N,09624.26272,W,1.491,219.92,121023,,,A*75
$GPVTG,219.92,T,,M,1.491,N,2.762,K,A*30
$GPGGA,185557.00,3037.81922,N,09624.26272,W,1,10,0.88,96.1,M,-24.7,M,,*5B
$GPGSA,A,3,28,32,10,31,21,02,25,23,26,12,,,1.51,0.88,1.23*0F
$GPGSV,4,1,14,01,27,308,24,02,34,290,36,03,00,313,,10,52,112,27*78
$GPGSV,4,2,14,12,07,047,15,21,39,278,38,23,16,126,32,25,26,081,29*75
$GPGSV,4,3,14,26,11,175,21,28,83,202,28,31,52,212,37,32,54,025,31*71
$GPGSV,4,4,14,46,40,232,38,48,43,227,36*7B
$GPGLL,3037.81922,N,09624.26272,W,185557.00,A,A*7D
$GPRMC,185558.00,A,3037.81893,N,09624.26308,W,1.615,223.39,121023,,,A*7B
$GPVTG,223.39,T,,M,1.615,N,2.991,K,A*34
$GPGGA,185558.00,3037.81893,N,09624.26308,W,1,10,0.88,96.2,M,-24.7,M,,*50
$GPGSA,A,3,28,32,10,31,21,02,25,23,26,12,,,1.51,0.88,1.23*0F
$GPGSV,4,1,14,01,27,308,27,02,34,290,35,03,00,313,,10,52,112,26*79
$GPGSV,4,2,14,12,07,047,16,21,39,277,36,23,16,126,32,25,26,081,30*7F
$GPGSV,4,3,14,26,11,175,23,28,83,202,28,31,52,212,37,32,54,025,29*7A
$GPGSV,4,4,14,46,40,232,36,48,43,227,36*75
$GPGLL,3037.81893,N,09624.26308,W,185558.00,A,A*75
$GPRMC,185559.00,A,3037.81866,N,09624.26338,W,1.400,222.28,121023,,,A*74
$GPVTG,222.28,T,,M,1.400,N,2.594,K,A*3A
$GPGGA,185559.00,3037.81866,N,09624.26338,W,1,10,0.88,96.3,M,-24.7,M,,*59
$GPGSA,A,3,28,32,10,31,21,02,25,23,26,12,,,1.51,0.88,1.23*0F
$GPGSV,4,1,14,01,27,308,28,02,34,290,33,03,00,313,,10,52,112,27*71
$GPGSV,4,2,14,12,07,047,15,21,39,277,38,23,16,126,30,25,26,081,30*70
$GPGSV,4,3,14,26,11,175,23,28,83,202,29,31,52,212,37,32,54,025,29*7B
$GPGSV,4,4,14,46,40,232,37,48,43,227,35*77
$GPGLL,3037.81866,N,09624.26338,W,185559.00,A,A*7D
$GPRMC,185600.00,A,3037.81834,N,09624.26372,W,1.574,221.40,121023,,,A*7D